{"Almacenes":{"227":{"CLUES":"ASSSA000931","NOMBREENTIDAD":"AGUASCALIENTES","NOMBREMUNICIPIO":"AGUASCALIENTES","NOMBRE-LOCALIDAD":"AGUASCALIENTES","CLAVEINSTITUCION":"SSA","NOMBREUNIDAD":"ALMACÉN GENERAL ISEA","DIRECCION":"MARGIL DE JESÚS NO.  1501, FRACCIONAMIENTO ARBOLEDAS","CODIGOPOSTAL":"20020","RFC":"XAXX111111","FECHACONSTRUCCION":null,"FECHAINICIOPERACION":"1989-04-01","LONGITUD":"-102.32486687850951","LATITUD":"21.956695933663195","ESTRATOUNIDAD":"URBANO","ULTIMOMOVIMIENTO":"CAMBIO","FEULMOVIMIENTO":"2017-03-15"},"228":{"CLUES":"ASSSA000943","NOMBREENTIDAD":"AGUASCALIENTES","NOMBREMUNICIPIO":"AGUASCALIENTES","NOMBRE-LOCALIDAD":"AGUASCALIENTES","CLAVEINSTITUCION":"SSA","NOMBREUNIDAD":"ALMACÉN JURISDICCIONAL NO. I","DIRECCION":"MARGIL DE JESÚS NO.  1501, FRACCIONAMIENTO ARBOLEDAS","CODIGOPOSTAL":"20020","RFC":"XAXX111111","FECHACONSTRUCCION":null,"FECHAINICIOPERACION":"1992-08-01","LONGITUD":"-102.302","LATITUD":"21.9007","ESTRATOUNIDAD":"URBANO","ULTIMOMOVIMIENTO":"CAMBIO","FEULMOVIMIENTO":"2010-05-20"},"229":{"CLUES":"ASSSA000955","NOMBREENTIDAD":"AGUASCALIENTES","NOMBREMUNICIPIO":"RINCÓN DE ROMOS","NOMBRE-LOCALIDAD":"RINCON DE ROMOS","CLAVEINSTITUCION":"SSA","NOMBREUNIDAD":"ALMACÉN JURISDICCIONAL NO. II","DIRECCION":"AVENIDA MÉXICO NO.  518, COLONIA J. LUIS MACIAS","CODIGOPOSTAL":"20404","RFC":"XAXX111111","FECHACONSTRUCCION":null,"FECHAINICIOPERACION":null,"LONGITUD":"-102.318","LATITUD":"22.2328","ESTRATOUNIDAD":"URBANO","ULTIMOMOVIMIENTO":"CAMBIO","FEULMOVIMIENTO":"2012-01-03"},"230":{"CLUES":"ASSSA000960","NOMBREENTIDAD":"AGUASCALIENTES","NOMBREMUNICIPIO":"CALVILLO","NOMBRE-LOCALIDAD":"CALVILLO","CLAVEINSTITUCION":"SSA","NOMBREUNIDAD":"ALMACÉN JURISDICCIONAL NO. III","DIRECCION":"BULEVAR RODOLFO LANDEROS GALLEGOS NO.  137, COLONIA DEL CARMEN","CODIGOPOSTAL":"20800","RFC":"XAXX111111","FECHACONSTRUCCION":null,"FECHAINICIOPERACION":"1989-01-01","LONGITUD":"-102.711","LATITUD":"21.8463","ESTRATOUNIDAD":"URBANO","ULTIMOMOVIMIENTO":"CAMBIO","FEULMOVIMIENTO":"2011-08-03"},"1151":{"CLUES":"BCSSA017521","NOMBREENTIDAD":"BAJA CALIFORNIA","NOMBREMUNICIPIO":"MEXICALI","NOMBRE-LOCALIDAD":"MEXICALI","CLAVEINSTITUCION":"SSA","NOMBREUNIDAD":"ALMACÉN DE MEXICALI","DIRECCION":"CARRETERA A PESCADEROS S\/N, EJIDO PUEBLA(ATRA DEL CENTROS DE SALUD)","CODIGOPOSTAL":"21620","RFC":"XAXX111111","FECHACONSTRUCCION":null,"FECHAINICIOPERACION":null,"LONGITUD":"-115.449","LATITUD":"32.6114","ESTRATOUNIDAD":"URBANO","ULTIMOMOVIMIENTO":"ALTA","FEULMOVIMIENTO":"2006-05-10"},"1152":{"CLUES":"BCSSA017533","NOMBREENTIDAD":"BAJA CALIFORNIA","NOMBREMUNICIPIO":"TIJUANA","NOMBRE-LOCALIDAD":"TIJUANA","CLAVEINSTITUCION":"SSA","NOMBREUNIDAD":"ALMACÉN DE TIJUANA","DIRECCION":"CALLE SINALOA NO. 18A COL. LIBERTAD PARTE ALTA","CODIGOPOSTAL":"99999","RFC":"XAXX111111","FECHACONSTRUCCION":null,"FECHAINICIOPERACION":null,"LONGITUD":"-116.972","LATITUD":"32.4925","ESTRATOUNIDAD":"URBANO","ULTIMOMOVIMIENTO":"ALTA","FEULMOVIMIENTO":"2006-05-10"},"1153":{"CLUES":"BCSSA017545","NOMBREENTIDAD":"BAJA CALIFORNIA","NOMBREMUNICIPIO":"ENSENADA","NOMBRE-LOCALIDAD":"ENSENADA","CLAVEINSTITUCION":"SSA","NOMBREUNIDAD":"ALMACÉN DE ENSENADA","DIRECCION":"CARRETERA TRANSPENINSULAR NO. 541 FRACC. VALLE DORADO","CODIGOPOSTAL":"99999","RFC":"XAXX111111","FECHACONSTRUCCION":null,"FECHAINICIOPERACION":null,"LONGITUD":"-116.605","LATITUD":"31.8336","ESTRATOUNIDAD":"URBANO","ULTIMOMOVIMIENTO":"ALTA","FEULMOVIMIENTO":"2006-05-10"},"1204":{"CLUES":"BCSSA018051","NOMBREENTIDAD":"BAJA CALIFORNIA","NOMBREMUNICIPIO":"MEXICALI","NOMBRE-LOCALIDAD":"MEXICALI","CLAVEINSTITUCION":"SSA","NOMBREUNIDAD":"ALMACEN MEXICALI II","DIRECCION":"CALLE CIRCUITO DE LAS MISIONES ORIENTE NO.188, COL. PARQUE INDUSTRIAL LAS CALIFORNIAS","CODIGOPOSTAL":"21394","RFC":"XAXX111111","FECHACONSTRUCCION":null,"FECHAINICIOPERACION":null,"LONGITUD":"-115.4206506","LATITUD":"32.6026524","ESTRATOUNIDAD":"URBANO","ULTIMOMOVIMIENTO":"CAMBIO","FEULMOVIMIENTO":"2016-01-07"},"1470":{"CLUES":"BSSSA000811","NOMBREENTIDAD":"BAJA CALIFORNIA SUR","NOMBREMUNICIPIO":"COMONDÚ","NOMBRE-LOCALIDAD":"CIUDAD CONSTITUCION","CLAVEINSTITUCION":"SSA","NOMBREUNIDAD":"ALMACÉN JURISDICCIONAL 01","DIRECCION":"LORENZA MORENO VIUDA DE TAPIA, 20 DE NOV. COL. PUEBLO NVO CP(23670)","CODIGOPOSTAL":"23670","RFC":"XAXX111111","FECHACONSTRUCCION":"1999-10-15","FECHAINICIOPERACION":"1999-11-01","LONGITUD":"-111.6468629","LATITUD":"25.0337997","ESTRATOUNIDAD":"URBANO","ULTIMOMOVIMIENTO":"CAMBIO","FEULMOVIMIENTO":"2016-05-02"},"1473":{"CLUES":"BSSSA000840","NOMBREENTIDAD":"BAJA CALIFORNIA SUR","NOMBREMUNICIPIO":"MULEGÉ","NOMBRE-LOCALIDAD":"SANTA ROSALIA","CLAVEINSTITUCION":"SSA","NOMBREUNIDAD":"ALMACÉN JURISDICCIONAL 02","DIRECCION":"JEAN MICHEL COUSTEAU NO. EXT. 2","CODIGOPOSTAL":"23920","RFC":"XAXX111111","FECHACONSTRUCCION":"1981-01-01","FECHAINICIOPERACION":"1981-01-01","LONGITUD":"-112.267671","LATITUD":"27.3387008","ESTRATOUNIDAD":"URBANO","ULTIMOMOVIMIENTO":"CAMBIO","FEULMOVIMIENTO":"2016-03-09"},"1478":{"CLUES":"BSSSA000893","NOMBREENTIDAD":"BAJA CALIFORNIA SUR","NOMBREMUNICIPIO":"LA PAZ","NOMBRE-LOCALIDAD":"LA PAZ","CLAVEINSTITUCION":"SSA","NOMBREUNIDAD":"ALMACEN CENTRAL","DIRECCION":"DEGOLLADO Y CABILDOS. C.P. (23030)","CODIGOPOSTAL":"23030","RFC":"XAXX111111","FECHACONSTRUCCION":"1988-09-01","FECHAINICIOPERACION":"1988-09-01","LONGITUD":"-110.2878184","LATITUD":"24.1401036","ESTRATOUNIDAD":"URBANO","ULTIMOMOVIMIENTO":"CAMBIO","FEULMOVIMIENTO":"2016-03-09"},"1479":{"CLUES":"BSSSA000905","NOMBREENTIDAD":"BAJA CALIFORNIA SUR","NOMBREMUNICIPIO":"LA PAZ","NOMBRE-LOCALIDAD":"LA PAZ","CLAVEINSTITUCION":"SSA","NOMBREUNIDAD":"ALMACÉN JURISDICCIONAL 03","DIRECCION":"5 DE MAYO ESQO IGNACIO MANUEL ALTAMIRANO.","CODIGOPOSTAL":"23000","RFC":"XAXX111111","FECHACONSTRUCCION":"1990-01-01","FECHAINICIOPERACION":"1990-01-01","LONGITUD":"-110.309574","LATITUD":"24.1592727","ESTRATOUNIDAD":"URBANO","ULTIMOMOVIMIENTO":"CAMBIO","FEULMOVIMIENTO":"2016-03-09"},"1481":{"CLUES":"BSSSA000922","NOMBREENTIDAD":"BAJA CALIFORNIA SUR","NOMBREMUNICIPIO":"LOS CABOS","NOMBRE-LOCALIDAD":"SAN JOSE DEL CABO","CLAVEINSTITUCION":"SSA","NOMBREUNIDAD":"ALMACÉN JURISDICCIÓN 04","DIRECCION":"MANUEL DOBLADO NO. EXT. 5 COL. 5 DE FEBRERO C.P. (23400)","CODIGOPOSTAL":"23406","RFC":"XAXX111111","FECHACONSTRUCCION":"1950-01-02","FECHAINICIOPERACION":"1950-02-01","LONGITUD":"-109.7020414","LATITUD":"23.0611656","ESTRATOUNIDAD":"URBANO","ULTIMOMOVIMIENTO":"CAMBIO","FEULMOVIMIENTO":"2016-03-09"},"1928":{"CLUES":"CCSSA017345","NOMBREENTIDAD":"CAMPECHE","NOMBREMUNICIPIO":"CAMPECHE","NOMBRE-LOCALIDAD":"SAN FRANCISCO DE CAMPECHE","CLAVEINSTITUCION":"SSA","NOMBREUNIDAD":"ALMACÉN GENERAL","DIRECCION":"AV. COLOSIO NO. 6 ESQUINA X CALLE 18","CODIGOPOSTAL":"99999","RFC":"XAXX111111","FECHACONSTRUCCION":null,"FECHAINICIOPERACION":"1987-06-01","LONGITUD":"-90.5487","LATITUD":"19.8309","ESTRATOUNIDAD":"URBANO","ULTIMOMOVIMIENTO":"CAMBIO","FEULMOVIMIENTO":"2015-12-24"},"1929":{"CLUES":"CCSSA017350","NOMBREENTIDAD":"CAMPECHE","NOMBREMUNICIPIO":"CAMPECHE","NOMBRE-LOCALIDAD":"SAN FRANCISCO DE CAMPECHE","CLAVEINSTITUCION":"SSA","NOMBREUNIDAD":"ALMACÉN CENTRAL","DIRECCION":"AV. COLOSIO NO. 6 ESQUINA X CALLE 18","CODIGOPOSTAL":"99999","RFC":"XAXX111111","FECHACONSTRUCCION":null,"FECHAINICIOPERACION":"1997-09-01","LONGITUD":"-90.5487","LATITUD":"19.8309","ESTRATOUNIDAD":"URBANO","ULTIMOMOVIMIENTO":"CAMBIO","FEULMOVIMIENTO":"2015-12-24"},"1930":{"CLUES":"CCSSA017362","NOMBREENTIDAD":"CAMPECHE","NOMBREMUNICIPIO":"ESCÁRCEGA","NOMBRE-LOCALIDAD":"ESCARCEGA","CLAVEINSTITUCION":"SSA","NOMBREUNIDAD":"ALMACÉN JURISDICCIONAL","DIRECCION":"CALLE 28 S\/N ENTRE 23 Y 25","CODIGOPOSTAL":"99999","RFC":"XAXX111111","FECHACONSTRUCCION":null,"FECHAINICIOPERACION":"1998-02-01","LONGITUD":"-90.7449","LATITUD":"18.606","ESTRATOUNIDAD":"URBANO","ULTIMOMOVIMIENTO":"ALTA","FEULMOVIMIENTO":"2006-05-10"},"1931":{"CLUES":"CCSSA017374","NOMBREENTIDAD":"CAMPECHE","NOMBREMUNICIPIO":"CARMEN","NOMBRE-LOCALIDAD":"CIUDAD DEL CARMEN","CLAVEINSTITUCION":"SSA","NOMBREUNIDAD":"ALMACÉN JURISDICCIONAL","DIRECCION":"CALLE 56 S\/N COL. PETROLERA","CODIGOPOSTAL":"99999","RFC":"XAXX111111","FECHACONSTRUCCION":null,"FECHAINICIOPERACION":"1990-04-01","LONGITUD":"-91.8078","LATITUD":"18.6499","ESTRATOUNIDAD":"URBANO","ULTIMOMOVIMIENTO":"ALTA","FEULMOVIMIENTO":"2006-05-10"},"2916":{"CLUES":"CHSSA017441","NOMBREENTIDAD":"CHIHUAHUA","NOMBREMUNICIPIO":"CHIHUAHUA","NOMBRE-LOCALIDAD":"CHIHUAHUA","CLAVEINSTITUCION":"SSA","NOMBREUNIDAD":"ALMACÉN ESTATAL","DIRECCION":"AVE. DE LAS INDUSTRIAS NO. 3720-B","CODIGOPOSTAL":"31110","RFC":"XAXX111111","FECHACONSTRUCCION":null,"FECHAINICIOPERACION":null,"LONGITUD":"-106.072","LATITUD":"28.6665","ESTRATOUNIDAD":"URBANO","ULTIMOMOVIMIENTO":"CAMBIO","FEULMOVIMIENTO":"2011-05-10"},"2923":{"CLUES":"CHSSA017511","NOMBREENTIDAD":"CHIHUAHUA","NOMBREMUNICIPIO":"OJINAGA","NOMBRE-LOCALIDAD":"MANUEL OJINAGA","CLAVEINSTITUCION":"SSA","NOMBREUNIDAD":"ALMACÉN SUBJURISDICCIONAL","DIRECCION":"BOULVERD OSCAR FLORES Y AVE. PRESIDIO NO. 700","CODIGOPOSTAL":"99999","RFC":"XAXX111111","FECHACONSTRUCCION":null,"FECHAINICIOPERACION":null,"LONGITUD":"-104.413","LATITUD":"29.5466","ESTRATOUNIDAD":"URBANO","ULTIMOMOVIMIENTO":"CAMBIO","FEULMOVIMIENTO":"2011-05-10"},"2928":{"CLUES":"CHSSA017564","NOMBREENTIDAD":"CHIHUAHUA","NOMBREMUNICIPIO":"HIDALGO DEL PARRAL","NOMBRE-LOCALIDAD":"HIDALGO DEL PARRAL","CLAVEINSTITUCION":"SSA","NOMBREUNIDAD":"ALMACÉN JURISDICCIONAL","DIRECCION":"JORGE WASHINGTON S\/N.","CODIGOPOSTAL":"33860","RFC":"XAXX111111","FECHACONSTRUCCION":null,"FECHAINICIOPERACION":null,"LONGITUD":"-105.678","LATITUD":"26.9325","ESTRATOUNIDAD":"URBANO","ULTIMOMOVIMIENTO":"CAMBIO","FEULMOVIMIENTO":"2011-05-10"},"2931":{"CLUES":"CHSSA017593","NOMBREENTIDAD":"CHIHUAHUA","NOMBREMUNICIPIO":"GÓMEZ FARÍAS","NOMBRE-LOCALIDAD":"VALENTIN GOMEZ FARIAS","CLAVEINSTITUCION":"SSA","NOMBREUNIDAD":"ALMACÉN SUBJURISDICCIONAL","DIRECCION":"CALLA JUÁREZ E INDEPENDENCIA S\/N.","CODIGOPOSTAL":"31900","RFC":"XAXX111111","FECHACONSTRUCCION":null,"FECHAINICIOPERACION":null,"LONGITUD":"-107.737","LATITUD":"29.3574","ESTRATOUNIDAD":"URBANO","ULTIMOMOVIMIENTO":"CAMBIO","FEULMOVIMIENTO":"2013-03-19"},"2933":{"CLUES":"CHSSA017610","NOMBREENTIDAD":"CHIHUAHUA","NOMBREMUNICIPIO":"NUEVO CASAS GRANDES","NOMBRE-LOCALIDAD":"NUEVO CASAS GRANDES","CLAVEINSTITUCION":"SSA","NOMBREUNIDAD":"ALMACÉN JURISDICCIONAL","DIRECCION":"CALLEJÓN 20 NO. 501","CODIGOPOSTAL":"31730","RFC":"XAXX111111","FECHACONSTRUCCION":null,"FECHAINICIOPERACION":null,"LONGITUD":"-107.905","LATITUD":"30.4231","ESTRATOUNIDAD":"URBANO","ULTIMOMOVIMIENTO":"CAMBIO","FEULMOVIMIENTO":"2011-05-10"},"2937":{"CLUES":"CHSSA017651","NOMBREENTIDAD":"CHIHUAHUA","NOMBREMUNICIPIO":"BOCOYNA","NOMBRE-LOCALIDAD":"CREEL","CLAVEINSTITUCION":"SSA","NOMBREUNIDAD":"ALMACÈN OPORTUNIDADES","DIRECCION":"AVE. LÓPEZ MATEOS S\/N.","CODIGOPOSTAL":"33200","RFC":"XAXX111111","FECHACONSTRUCCION":null,"FECHAINICIOPERACION":null,"LONGITUD":"-107.637","LATITUD":"27.7506","ESTRATOUNIDAD":"URBANO","ULTIMOMOVIMIENTO":"CAMBIO","FEULMOVIMIENTO":"2011-05-10"},"3742":{"CLUES":"CLSSA002064","NOMBREENTIDAD":"COAHUILA DE ZARAGOZA","NOMBREMUNICIPIO":"SALTILLO","NOMBRE-LOCALIDAD":"SALTILLO","CLAVEINSTITUCION":"SSA","NOMBREUNIDAD":"ALMACÉN ESTATAL","DIRECCION":"A UN LADO DE PAPER KLIN SA DE CV. Y AL FRENTE SERVICIO AUTOMOTRIZ CR","CODIGOPOSTAL":"25294","RFC":"XAXX111111","FECHACONSTRUCCION":null,"FECHAINICIOPERACION":null,"LONGITUD":"-100.907875","LATITUD":"25.442861","ESTRATOUNIDAD":"URBANO","ULTIMOMOVIMIENTO":"CAMBIO","FEULMOVIMIENTO":"2016-05-03"},"4089":{"CLUES":"CMSSA010450","NOMBREENTIDAD":"COLIMA","NOMBREMUNICIPIO":"COLIMA","NOMBRE-LOCALIDAD":"COLIMA","CLAVEINSTITUCION":"SSA","NOMBREUNIDAD":"ALMACÉN EST.","DIRECCION":"CARLOS ZALAZAR PRECIADO 249","CODIGOPOSTAL":"28610","RFC":"XAXX111111","FECHACONSTRUCCION":null,"FECHAINICIOPERACION":"1989-04-01","LONGITUD":"-103.729","LATITUD":"19.2374","ESTRATOUNIDAD":"URBANO","ULTIMOMOVIMIENTO":"CAMBIO","FEULMOVIMIENTO":"2011-02-21"},"6206":{"CLUES":"CSSSA017324","NOMBREENTIDAD":"CHIAPAS","NOMBREMUNICIPIO":"TUXTLA GUTIÉRREZ","NOMBRE-LOCALIDAD":"TUXTLA GUTIERREZ","CLAVEINSTITUCION":"SSA","NOMBREUNIDAD":"ALMACÉN ESTATAL (TUXTLA GUTIÉRREZ)","DIRECCION":"CARRETERA A CHICOASEN KM. 3.5","CODIGOPOSTAL":"29020","RFC":"XAXX111111","FECHACONSTRUCCION":null,"FECHAINICIOPERACION":"1994-09-01","LONGITUD":"-93.1609","LATITUD":"16.7645","ESTRATOUNIDAD":"URBANO","ULTIMOMOVIMIENTO":"ALTA","FEULMOVIMIENTO":"2006-05-10"},"6207":{"CLUES":"CSSSA017336","NOMBREENTIDAD":"CHIAPAS","NOMBREMUNICIPIO":"TUXTLA GUTIÉRREZ","NOMBRE-LOCALIDAD":"TUXTLA GUTIERREZ","CLAVEINSTITUCION":"SSA","NOMBREUNIDAD":"ALMACÉN JURISDICCIONAL (TUXTLA GUTIÉRREZ)","DIRECCION":"2A. SUR ORIENTE NO. 1092","CODIGOPOSTAL":"29000","RFC":"XAXX111111","FECHACONSTRUCCION":null,"FECHAINICIOPERACION":"1989-10-01","LONGITUD":"-93.1151","LATITUD":"16.7519","ESTRATOUNIDAD":"URBANO","ULTIMOMOVIMIENTO":"ALTA","FEULMOVIMIENTO":"2006-05-10"},"6208":{"CLUES":"CSSSA017341","NOMBREENTIDAD":"CHIAPAS","NOMBREMUNICIPIO":"SAN CRISTÓBAL DE LAS CASAS","NOMBRE-LOCALIDAD":"SAN CRISTOBAL DE LAS CASAS","CLAVEINSTITUCION":"SSA","NOMBREUNIDAD":"ALMACÉN JURISDICCIONAL (SAN CRISTÓBAL DE LAS CASAS)","DIRECCION":"PERIFERICO SUR NO. 55","CODIGOPOSTAL":"29290","RFC":"XAXX111111","FECHACONSTRUCCION":null,"FECHAINICIOPERACION":"2001-11-01","LONGITUD":"-92.6428","LATITUD":"16.7123","ESTRATOUNIDAD":"URBANO","ULTIMOMOVIMIENTO":"ALTA","FEULMOVIMIENTO":"2013-05-07"},"6209":{"CLUES":"CSSSA017353","NOMBREENTIDAD":"CHIAPAS","NOMBREMUNICIPIO":"COMITÁN DE DOMÍNGUEZ","NOMBRE-LOCALIDAD":"COMITAN DE DOMINGUEZ","CLAVEINSTITUCION":"SSA","NOMBREUNIDAD":"ALMACÉN JURISDICCIONAL (COMITÁN)","DIRECCION":"7A CALLE NORTE PONIENTE NO. 37","CODIGOPOSTAL":"30000","RFC":"XAXX111111","FECHACONSTRUCCION":null,"FECHAINICIOPERACION":"1994-01-01","LONGITUD":"-92.1426","LATITUD":"16.2557","ESTRATOUNIDAD":"URBANO","ULTIMOMOVIMIENTO":"ALTA","FEULMOVIMIENTO":"2006-05-10"},"6210":{"CLUES":"CSSSA017365","NOMBREENTIDAD":"CHIAPAS","NOMBREMUNICIPIO":"VILLAFLORES","NOMBRE-LOCALIDAD":"VILLAFLORES","CLAVEINSTITUCION":"SSA","NOMBREUNIDAD":"ALMACÉN JURISDICCIONAL (VILLAFLORES)","DIRECCION":"1A. PONIENTE S\/N ENTRE TERCERA Y CUARTA","CODIGOPOSTAL":"30470","RFC":"XAXX111111","FECHACONSTRUCCION":null,"FECHAINICIOPERACION":"1992-11-01","LONGITUD":"-93.2671","LATITUD":"16.2324","ESTRATOUNIDAD":"URBANO","ULTIMOMOVIMIENTO":"ALTA","FEULMOVIMIENTO":"2006-05-10"},"6211":{"CLUES":"CSSSA017370","NOMBREENTIDAD":"CHIAPAS","NOMBREMUNICIPIO":"PICHUCALCO","NOMBRE-LOCALIDAD":"PICHUCALCO","CLAVEINSTITUCION":"SSA","NOMBREUNIDAD":"ALMACÉN JURISDICCIONAL (PICHUCALCO)","DIRECCION":"CALLE BELISARIO DOMÍNGUEZ","CODIGOPOSTAL":"29520","RFC":"XAXX111111","FECHACONSTRUCCION":null,"FECHAINICIOPERACION":"1993-01-01","LONGITUD":"-93.1159","LATITUD":"17.5101","ESTRATOUNIDAD":"URBANO","ULTIMOMOVIMIENTO":"ALTA","FEULMOVIMIENTO":"2006-05-10"},"6212":{"CLUES":"CSSSA017382","NOMBREENTIDAD":"CHIAPAS","NOMBREMUNICIPIO":"PALENQUE","NOMBRE-LOCALIDAD":"PALENQUE","CLAVEINSTITUCION":"SSA","NOMBREUNIDAD":"ALMACÉN JURISDICCIONAL (PALENQUE)","DIRECCION":"NO DISPONIBLE","CODIGOPOSTAL":"29960","RFC":"XAXX111111","FECHACONSTRUCCION":null,"FECHAINICIOPERACION":"1998-09-01","LONGITUD":"-91.9833","LATITUD":"17.526","ESTRATOUNIDAD":"URBANO","ULTIMOMOVIMIENTO":"ALTA","FEULMOVIMIENTO":"2006-05-10"},"6213":{"CLUES":"CSSSA017394","NOMBREENTIDAD":"CHIAPAS","NOMBREMUNICIPIO":"TAPACHULA","NOMBRE-LOCALIDAD":"TAPACHULA DE CORDOVA Y ORDOÑEZ","CLAVEINSTITUCION":"SSA","NOMBREUNIDAD":"ALMACÉN JURISDICCIONAL (TAPACHULA)","DIRECCION":"3A. AV. SUR NO. 19","CODIGOPOSTAL":"30700","RFC":"XAXX111111","FECHACONSTRUCCION":null,"FECHAINICIOPERACION":"1961-01-01","LONGITUD":"-92.2616","LATITUD":"14.9043","ESTRATOUNIDAD":"URBANO","ULTIMOMOVIMIENTO":"CAMBIO","FEULMOVIMIENTO":"2010-12-03"},"6214":{"CLUES":"CSSSA017406","NOMBREENTIDAD":"CHIAPAS","NOMBREMUNICIPIO":"TONALÁ","NOMBRE-LOCALIDAD":"TONALA","CLAVEINSTITUCION":"SSA","NOMBREUNIDAD":"ALMACÉN JURISDICCIONAL (TONALÁ)","DIRECCION":"C. FRANCISCO I. MADERO NO. 56","CODIGOPOSTAL":"30500","RFC":"XAXX111111","FECHACONSTRUCCION":null,"FECHAINICIOPERACION":"2001-02-01","LONGITUD":"-93.7578","LATITUD":"16.0909","ESTRATOUNIDAD":"URBANO","ULTIMOMOVIMIENTO":"CAMBIO","FEULMOVIMIENTO":"2010-12-03"},"6215":{"CLUES":"CSSSA017411","NOMBREENTIDAD":"CHIAPAS","NOMBREMUNICIPIO":"OCOSINGO","NOMBRE-LOCALIDAD":"OCOSINGO","CLAVEINSTITUCION":"SSA","NOMBREUNIDAD":"ALMACÉN JURISDICCIONAL (OCOSINGO)","DIRECCION":"11A. ORIENTE SUR S\/N","CODIGOPOSTAL":"29950","RFC":"XAXX111111","FECHACONSTRUCCION":null,"FECHAINICIOPERACION":"1997-11-01","LONGITUD":"-92.083","LATITUD":"16.9099","ESTRATOUNIDAD":"URBANO","ULTIMOMOVIMIENTO":"CAMBIO","FEULMOVIMIENTO":"2010-12-03"},"8880":{"CLUES":"DFSSA004936","NOMBREENTIDAD":"CIUDAD DE MEXICO","NOMBREMUNICIPIO":"AZCAPOTZALCO","NOMBRE-LOCALIDAD":"AZCAPOTZALCO","CLAVEINSTITUCION":"SSA","NOMBREUNIDAD":"ALMACÉN CENTRAL ","DIRECCION":null,"CODIGOPOSTAL":"02950","RFC":null,"FECHACONSTRUCCION":null,"FECHAINICIOPERACION":"2019-08-01","LONGITUD":"-99.1593945","LATITUD":"19.4692688","ESTRATOUNIDAD":"URBANO","ULTIMOMOVIMIENTO":"ALTA","FEULMOVIMIENTO":"2019-09-06"},"8881":{"CLUES":"DFSSA004941","NOMBREENTIDAD":"CIUDAD DE MEXICO","NOMBREMUNICIPIO":"BENITO JUÁREZ","NOMBRE-LOCALIDAD":"BENITO JUAREZ","CLAVEINSTITUCION":"SSA","NOMBREUNIDAD":"ALMACÉN DE VESTUARIO Y EQUIPO DE PROTECCIÓN","DIRECCION":null,"CODIGOPOSTAL":"03660","RFC":null,"FECHACONSTRUCCION":"2018-11-30","FECHAINICIOPERACION":"2019-11-01","LONGITUD":"-99.14079","LATITUD":"19.376511","ESTRATOUNIDAD":"URBANO","ULTIMOMOVIMIENTO":"ALTA","FEULMOVIMIENTO":"2020-01-09"},"8928":{"CLUES":"DFSSA017723","NOMBREENTIDAD":"CIUDAD DE MEXICO","NOMBREMUNICIPIO":"IZTAPALAPA","NOMBRE-LOCALIDAD":"IZTAPALAPA","CLAVEINSTITUCION":"SSA","NOMBREUNIDAD":"ALMACÉN RAFAEL CARRILLO","DIRECCION":"AYUNTAMENTO NO.  151 COL. BARRIO LA ASUNCIÓN","CODIGOPOSTAL":"99999","RFC":"XAXX111111","FECHACONSTRUCCION":null,"FECHAINICIOPERACION":null,"LONGITUD":"-99.05","LATITUD":"19.3428","ESTRATOUNIDAD":"URBANO","ULTIMOMOVIMIENTO":"CAMBIO","FEULMOVIMIENTO":"2011-05-31"},"8929":{"CLUES":"DFSSA017735","NOMBREENTIDAD":"CIUDAD DE MEXICO","NOMBREMUNICIPIO":"CUAUHTÉMOC","NOMBRE-LOCALIDAD":"CUAUHTEMOC","CLAVEINSTITUCION":"SSA","NOMBREUNIDAD":"ALMACÉN FRESNO","DIRECCION":"FRESNO NO. 408 COL. SANTA MARIA LA RIVERA","CODIGOPOSTAL":"99999","RFC":"XAXX111111","FECHACONSTRUCCION":null,"FECHAINICIOPERACION":null,"LONGITUD":"-99.1534","LATITUD":"19.4329","ESTRATOUNIDAD":"URBANO","ULTIMOMOVIMIENTO":"CAMBIO","FEULMOVIMIENTO":"2011-05-31"},"9681":{"CLUES":"DGSSA017144","NOMBREENTIDAD":"DURANGO","NOMBREMUNICIPIO":"DURANGO","NOMBRE-LOCALIDAD":"VICTORIA DE DURANGO","CLAVEINSTITUCION":"SSA","NOMBREUNIDAD":"ALMACÉN ESTATAL","DIRECCION":"SAN SALVADOR NO.-226  FRACC. GUADALUPE","CODIGOPOSTAL":"34220","RFC":"XAXX111111","FECHACONSTRUCCION":null,"FECHAINICIOPERACION":"1998-08-01","LONGITUD":"-104.624","LATITUD":"24.0448","ESTRATOUNIDAD":"URBANO","ULTIMOMOVIMIENTO":"CAMBIO","FEULMOVIMIENTO":"2015-06-04"},"9682":{"CLUES":"DGSSA017156","NOMBREENTIDAD":"DURANGO","NOMBREMUNICIPIO":"DURANGO","NOMBRE-LOCALIDAD":"VICTORIA DE DURANGO","CLAVEINSTITUCION":"SSA","NOMBREUNIDAD":"ALMACÉN JURISDICCIÓN SANITARIA NO. 1","DIRECCION":"HEROÍCO COLEGIO MILITAR S\/N","CODIGOPOSTAL":"34000","RFC":"XAXX111111","FECHACONSTRUCCION":null,"FECHAINICIOPERACION":"1956-01-01","LONGITUD":"-104.642","LATITUD":"24.0307","ESTRATOUNIDAD":"URBANO","ULTIMOMOVIMIENTO":"CAMBIO","FEULMOVIMIENTO":"2015-06-04"},"9683":{"CLUES":"DGSSA017161","NOMBREENTIDAD":"DURANGO","NOMBREMUNICIPIO":"GÓMEZ PALACIO","NOMBRE-LOCALIDAD":"GOMEZ PALACIO","CLAVEINSTITUCION":"SSA","NOMBREUNIDAD":"ALMACÉN JURISDICCIÓN SANITARIA NO.2 GÒMEZ PALACIO DGO.","DIRECCION":"ALDAMA NO. 1150 SUR COL. CENTRO","CODIGOPOSTAL":"35000","RFC":"XAXX111111","FECHACONSTRUCCION":null,"FECHAINICIOPERACION":null,"LONGITUD":"-103.498","LATITUD":"25.5562","ESTRATOUNIDAD":"URBANO","ULTIMOMOVIMIENTO":"CAMBIO","FEULMOVIMIENTO":"2015-06-04"},"9684":{"CLUES":"DGSSA017173","NOMBREENTIDAD":"DURANGO","NOMBREMUNICIPIO":"SANTIAGO PAPASQUIARO","NOMBRE-LOCALIDAD":"SANTIAGO PAPASQUIARO","CLAVEINSTITUCION":"SSA","NOMBREUNIDAD":"ALMACÉN JURISDICCIÓN SANITARIA NO.3  SANTIAGO PAPASQUIARO DGO.","DIRECCION":"BACA ORTÍZ Y RODRÍGUEZ PALAFOX S\/N  COL. CENTRO  SANTIAGO PAPASQUIARO","CODIGOPOSTAL":"34635","RFC":"XAXX111111","FECHACONSTRUCCION":null,"FECHAINICIOPERACION":"1984-05-01","LONGITUD":"-105.421","LATITUD":"25.0451","ESTRATOUNIDAD":"URBANO","ULTIMOMOVIMIENTO":"CAMBIO","FEULMOVIMIENTO":"2015-06-04"},"9685":{"CLUES":"DGSSA017185","NOMBREENTIDAD":"DURANGO","NOMBREMUNICIPIO":"RODEO","NOMBRE-LOCALIDAD":"RODEO","CLAVEINSTITUCION":"SSA","NOMBREUNIDAD":"ALMACÉN JURISDICCIÓN SANITARIA NO.4 RODEO","DIRECCION":"CARRETERA PANAMERICANA NO. 53","CODIGOPOSTAL":"99999","RFC":"XAXX111111","FECHACONSTRUCCION":"1985-02-28","FECHAINICIOPERACION":"1985-08-28","LONGITUD":"-104.56","LATITUD":"25.178","ESTRATOUNIDAD":"URBANO","ULTIMOMOVIMIENTO":"CAMBIO","FEULMOVIMIENTO":"2014-07-30"},"11183":{"CLUES":"GRSSA011560","NOMBREENTIDAD":"GUERRERO","NOMBREMUNICIPIO":"TLAPEHUALA","NOMBRE-LOCALIDAD":"TLAPEHUALA","CLAVEINSTITUCION":"SSA","NOMBREUNIDAD":"ALMACÉN JURISDICCIONAL TLAPEHUALA","DIRECCION":"CALLE CALVARIO S\/N, COL. CENTRO","CODIGOPOSTAL":"40600","RFC":"XAXX111111","FECHACONSTRUCCION":null,"FECHAINICIOPERACION":"1999-02-01","LONGITUD":"-100.53856","LATITUD":"18.240045","ESTRATOUNIDAD":"URBANO","ULTIMOMOVIMIENTO":"ALTA","FEULMOVIMIENTO":"2006-06-09"},"11185":{"CLUES":"GRSSA011585","NOMBREENTIDAD":"GUERRERO","NOMBREMUNICIPIO":"IGUALA DE LA INDEPENDENCIA","NOMBRE-LOCALIDAD":"IGUALA DE LA INDEPENDENCIA","CLAVEINSTITUCION":"SSA","NOMBREUNIDAD":"ALMACÉN REGIONAL IGUALA","DIRECCION":"AV. DEL ESTUDIANTE NO. 4, COL. ESQ. PERIFERICO OTE.","CODIGOPOSTAL":"40000","RFC":"XAXX111111","FECHACONSTRUCCION":null,"FECHAINICIOPERACION":"1984-08-01","LONGITUD":"-99.524341","LATITUD":"18.34517","ESTRATOUNIDAD":"URBANO","ULTIMOMOVIMIENTO":"ALTA","FEULMOVIMIENTO":"2006-06-09"},"11187":{"CLUES":"GRSSA011602","NOMBREENTIDAD":"GUERRERO","NOMBREMUNICIPIO":"CHILPANCINGO DE LOS BRAVO","NOMBRE-LOCALIDAD":"CHILPANCINGO DE LOS BRAVO","CLAVEINSTITUCION":"SSA","NOMBREUNIDAD":"ALMACÉN JURISDICCIONAL CHILPANCINGO","DIRECCION":"AV. CENTENARIO S\/N, COL. BURÓCRATAS","CODIGOPOSTAL":"39090","RFC":"XAXX111111","FECHACONSTRUCCION":null,"FECHAINICIOPERACION":"1987-01-01","LONGITUD":"-99.48846","LATITUD":"17.534986","ESTRATOUNIDAD":"URBANO","ULTIMOMOVIMIENTO":"ALTA","FEULMOVIMIENTO":"2006-06-09"},"11189":{"CLUES":"GRSSA011626","NOMBREENTIDAD":"GUERRERO","NOMBREMUNICIPIO":"CHILPANCINGO DE LOS BRAVO","NOMBRE-LOCALIDAD":"CHILPANCINGO DE LOS BRAVO","CLAVEINSTITUCION":"SSA","NOMBREUNIDAD":"ALMACÉN CENTRAL CHILPANCINGO","DIRECCION":"PROSPERIDAD S\/N, COL. UNIVERSAL","CODIGOPOSTAL":"39080","RFC":"XAXX111111","FECHACONSTRUCCION":null,"FECHAINICIOPERACION":"1987-01-01","LONGITUD":"-99.5000753","LATITUD":"17.5429585","ESTRATOUNIDAD":"URBANO","ULTIMOMOVIMIENTO":"ALTA","FEULMOVIMIENTO":"2006-06-09"},"11191":{"CLUES":"GRSSA011643","NOMBREENTIDAD":"GUERRERO","NOMBREMUNICIPIO":"TLAPA DE COMONFORT","NOMBRE-LOCALIDAD":"TLAPA DE COMONFORT","CLAVEINSTITUCION":"SSA","NOMBREUNIDAD":"ALMACÉN JURISDICCIONAL TLAPA","DIRECCION":"COMONFORT NO. 20, F. COL. SAN DIEGO","CODIGOPOSTAL":"41304","RFC":"XAXX111111","FECHACONSTRUCCION":null,"FECHAINICIOPERACION":"1987-01-01","LONGITUD":"-98.561033","LATITUD":"17.550036","ESTRATOUNIDAD":"URBANO","ULTIMOMOVIMIENTO":"ALTA","FEULMOVIMIENTO":"2006-06-09"},"11192":{"CLUES":"GRSSA011655","NOMBREENTIDAD":"GUERRERO","NOMBREMUNICIPIO":"TLAPA DE COMONFORT","NOMBRE-LOCALIDAD":"TLAPA DE COMONFORT","CLAVEINSTITUCION":"SSA","NOMBREUNIDAD":"ALMACÉN JURISDICCIONAL TLAPA PAC","DIRECCION":"COL. CONTLALCO","CODIGOPOSTAL":"41304","RFC":"XAXX111111","FECHACONSTRUCCION":null,"FECHAINICIOPERACION":"1999-06-01","LONGITUD":"-98.576383","LATITUD":"17.546135","ESTRATOUNIDAD":"URBANO","ULTIMOMOVIMIENTO":"ALTA","FEULMOVIMIENTO":"2006-06-09"},"11194":{"CLUES":"GRSSA011672","NOMBREENTIDAD":"GUERRERO","NOMBREMUNICIPIO":"TÉCPAN DE GALEANA","NOMBRE-LOCALIDAD":"TECPAN DE GALEANA","CLAVEINSTITUCION":"SSA","NOMBREUNIDAD":"ALMACÉN JURISDICIONAL TECPAN","DIRECCION":"AV. DE LOS MANGOS S\/N, FRACC. AJUQUIAQUI, EL CERRITO","CODIGOPOSTAL":"99999","RFC":"XAXX111111","FECHACONSTRUCCION":null,"FECHAINICIOPERACION":"1988-03-01","LONGITUD":"-100.6279206","LATITUD":"17.204513","ESTRATOUNIDAD":"URBANO","ULTIMOMOVIMIENTO":"ALTA","FEULMOVIMIENTO":"2006-06-09"},"11196":{"CLUES":"GRSSA011696","NOMBREENTIDAD":"GUERRERO","NOMBREMUNICIPIO":"OMETEPEC","NOMBRE-LOCALIDAD":"OMETEPEC","CLAVEINSTITUCION":"SSA","NOMBREUNIDAD":"ALMACÉN JURISDICCIONAL OMETEPEC","DIRECCION":"ABASOLO NO.  8","CODIGOPOSTAL":"41700","RFC":"XAXX111111","FECHACONSTRUCCION":null,"FECHAINICIOPERACION":"1987-01-01","LONGITUD":"-98.405572","LATITUD":"16.683063","ESTRATOUNIDAD":"URBANO","ULTIMOMOVIMIENTO":"ALTA","FEULMOVIMIENTO":"2006-06-09"},"11198":{"CLUES":"GRSSA011713","NOMBREENTIDAD":"GUERRERO","NOMBREMUNICIPIO":"ACAPULCO DE JUÁREZ","NOMBRE-LOCALIDAD":"ACAPULCO DE JUAREZ","CLAVEINSTITUCION":"SSA","NOMBREUNIDAD":"ALMACÉN JURISDICCIONAL ACAPULCO","DIRECCION":"RIO BRAVO, ESQ. FERNANDO ROSAS, COL. HOGAR MODERNO","CODIGOPOSTAL":"39580","RFC":"XAXX111111","FECHACONSTRUCCION":null,"FECHAINICIOPERACION":"1988-01-01","LONGITUD":"-99.911358","LATITUD":"16.858317","ESTRATOUNIDAD":"URBANO","ULTIMOMOVIMIENTO":"ALTA","FEULMOVIMIENTO":"2006-06-09"},"12691":{"CLUES":"GTSSA016575","NOMBREENTIDAD":"GUANAJUATO","NOMBREMUNICIPIO":"GUANAJUATO","NOMBRE-LOCALIDAD":"YERBABUENA","CLAVEINSTITUCION":"SSA","NOMBREUNIDAD":"ALMACÉN ESTATAL","DIRECCION":"ANDRÉS LÓPEZ S\/N, FRACC. SAN MIGUEL.","CODIGOPOSTAL":"36250","RFC":"XAXX111111","FECHACONSTRUCCION":null,"FECHAINICIOPERACION":"2004-01-01","LONGITUD":"-101.279","LATITUD":"20.9667","ESTRATOUNIDAD":"URBANO","ULTIMOMOVIMIENTO":"CAMBIO","FEULMOVIMIENTO":"2011-05-31"},"12692":{"CLUES":"GTSSA016580","NOMBREENTIDAD":"GUANAJUATO","NOMBREMUNICIPIO":"SALAMANCA","NOMBRE-LOCALIDAD":"SALAMANCA","CLAVEINSTITUCION":"SSA","NOMBREUNIDAD":"ALMACÉN","DIRECCION":"MORELOS 914 ESQUINA CAZADORA","CODIGOPOSTAL":"36700","RFC":"XAXX111111","FECHACONSTRUCCION":null,"FECHAINICIOPERACION":"1993-01-01","LONGITUD":"-101.186","LATITUD":"20.5667","ESTRATOUNIDAD":"URBANO","ULTIMOMOVIMIENTO":"CAMBIO","FEULMOVIMIENTO":"2011-05-31"},"13998":{"CLUES":"HGSSA015492","NOMBREENTIDAD":"HIDALGO","NOMBREMUNICIPIO":"PACHUCA DE SOTO","NOMBRE-LOCALIDAD":"PACHUCA DE SOTO","CLAVEINSTITUCION":"SSA","NOMBREUNIDAD":"ALMACÉN CENTRAL","DIRECCION":"ATRÁS DEL MERCADO DE LAMINAS","CODIGOPOSTAL":"42032","RFC":"XAXX111111","FECHACONSTRUCCION":null,"FECHAINICIOPERACION":"1995-02-01","LONGITUD":"-98.770976","LATITUD":"20.122453","ESTRATOUNIDAD":"URBANO","ULTIMOMOVIMIENTO":"CAMBIO","FEULMOVIMIENTO":"2019-07-15"},"15409":{"CLUES":"JCSSA003670","NOMBREENTIDAD":"JALISCO","NOMBREMUNICIPIO":"MEZQUITIC","NOMBRE-LOCALIDAD":"MEZQUITIC","CLAVEINSTITUCION":"SSA","NOMBREUNIDAD":"ALMACEN MEZQUITIC","DIRECCION":"VICTORIA NO. 2, COL. CENTRO","CODIGOPOSTAL":"46040","RFC":"XAXX111111","FECHACONSTRUCCION":"1971-01-01","FECHAINICIOPERACION":"2012-07-01","LONGITUD":"-103.73","LATITUD":"22.392","ESTRATOUNIDAD":"URBANO","ULTIMOMOVIMIENTO":"CAMBIO","FEULMOVIMIENTO":"2012-08-02"},"15848":{"CLUES":"JCSSA008063","NOMBREENTIDAD":"JALISCO","NOMBREMUNICIPIO":"AMECA","NOMBRE-LOCALIDAD":"AMECA","CLAVEINSTITUCION":"SSA","NOMBREUNIDAD":"ALMACÉN  REGIÓN SANITARIA IX AMECA","DIRECCION":null,"CODIGOPOSTAL":"46600","RFC":null,"FECHACONSTRUCCION":null,"FECHAINICIOPERACION":"2013-06-01","LONGITUD":"-104.0467171","LATITUD":"20.5557696","ESTRATOUNIDAD":"URBANO","ULTIMOMOVIMIENTO":"ALTA","FEULMOVIMIENTO":"2020-01-13"},"15907":{"CLUES":"JCSSA012771","NOMBREENTIDAD":"JALISCO","NOMBREMUNICIPIO":"ZAPOPAN","NOMBRE-LOCALIDAD":"ZAPOPAN","CLAVEINSTITUCION":"SSA","NOMBREUNIDAD":"ALMACÉN ESTATAL","DIRECCION":null,"CODIGOPOSTAL":"44140","RFC":"XAXX111111","FECHACONSTRUCCION":"2005-04-01","FECHAINICIOPERACION":"2005-07-01","LONGITUD":"-103.37042392","LATITUD":"20.71573871","ESTRATOUNIDAD":"URBANO","ULTIMOMOVIMIENTO":"CAMBIO","FEULMOVIMIENTO":"2011-05-10"},"15908":{"CLUES":"JCSSA012783","NOMBREENTIDAD":"JALISCO","NOMBREMUNICIPIO":"COLOTLÁN","NOMBRE-LOCALIDAD":"COLOTLAN","CLAVEINSTITUCION":"SSA","NOMBREUNIDAD":"ALMACÉN COLOTLÁN","DIRECCION":"QUITERIA  2, COL. CENTRO","CODIGOPOSTAL":"46200","RFC":"XAXX111111","FECHACONSTRUCCION":"1991-01-01","FECHAINICIOPERACION":"1991-01-01","LONGITUD":"-103.265","LATITUD":"22.1183","ESTRATOUNIDAD":"URBANO","ULTIMOMOVIMIENTO":"CAMBIO","FEULMOVIMIENTO":"2013-02-21"},"15909":{"CLUES":"JCSSA012795","NOMBREENTIDAD":"JALISCO","NOMBREMUNICIPIO":"LAGOS DE MORENO","NOMBRE-LOCALIDAD":"LAGOS DE MORENO","CLAVEINSTITUCION":"SSA","NOMBREUNIDAD":"ALMACÉN","DIRECCION":"CALLE FRANCISCO I MADERO  802, COL. CENTRO","CODIGOPOSTAL":"47400","RFC":"XAXX111111","FECHACONSTRUCCION":"2004-02-01","FECHAINICIOPERACION":"2004-02-01","LONGITUD":"-101.934","LATITUD":"21.3562","ESTRATOUNIDAD":"URBANO","ULTIMOMOVIMIENTO":"CAMBIO","FEULMOVIMIENTO":"2011-05-10"},"15910":{"CLUES":"JCSSA012800","NOMBREENTIDAD":"JALISCO","NOMBREMUNICIPIO":"TEPATITLÁN DE MORELOS","NOMBRE-LOCALIDAD":"TEPATITLAN DE MORELOS","CLAVEINSTITUCION":"SSA","NOMBREUNIDAD":"ALMACÉN","DIRECCION":"ALDAMA  120, COL. CENTRO","CODIGOPOSTAL":"47600","RFC":"XAXX111111","FECHACONSTRUCCION":"1962-05-01","FECHAINICIOPERACION":"1967-07-22","LONGITUD":"-102.762","LATITUD":"20.8087","ESTRATOUNIDAD":"URBANO","ULTIMOMOVIMIENTO":"CAMBIO","FEULMOVIMIENTO":"2011-05-10"},"15911":{"CLUES":"JCSSA012812","NOMBREENTIDAD":"JALISCO","NOMBREMUNICIPIO":"LA BARCA","NOMBRE-LOCALIDAD":"LA BARCA","CLAVEINSTITUCION":"SSA","NOMBREUNIDAD":"ALMACÉN","DIRECCION":"AVENIDA ADOLFO RUIZ CORTINEZ  29, COL. SANTA MONICA EJIDAL","CODIGOPOSTAL":"47910","RFC":"XAXX111111","FECHACONSTRUCCION":"1992-01-01","FECHAINICIOPERACION":"1992-01-01","LONGITUD":"-102.543","LATITUD":"20.2961","ESTRATOUNIDAD":"URBANO","ULTIMOMOVIMIENTO":"CAMBIO","FEULMOVIMIENTO":"2011-05-10"},"15912":{"CLUES":"JCSSA012824","NOMBREENTIDAD":"JALISCO","NOMBREMUNICIPIO":"TAMAZULA DE GORDIANO","NOMBRE-LOCALIDAD":"TAMAZULA DE GORDIANO","CLAVEINSTITUCION":"SSA","NOMBREUNIDAD":"ALMACÉN REGIONAL","DIRECCION":null,"CODIGOPOSTAL":"49650","RFC":"XAXX111111","FECHACONSTRUCCION":"1983-01-01","FECHAINICIOPERACION":"1998-01-01","LONGITUD":"-103.244","LATITUD":"19.6838","ESTRATOUNIDAD":"URBANO","ULTIMOMOVIMIENTO":"CAMBIO","FEULMOVIMIENTO":"2011-05-10"},"15913":{"CLUES":"JCSSA012836","NOMBREENTIDAD":"JALISCO","NOMBREMUNICIPIO":"ZAPOTLÁN EL GRANDE","NOMBRE-LOCALIDAD":"CIUDAD GUZMAN","CLAVEINSTITUCION":"SSA","NOMBREUNIDAD":"ALMACÉN","DIRECCION":"VICTORIA  61, COL. CENTRO","CODIGOPOSTAL":"49000","RFC":"XAXX111111","FECHACONSTRUCCION":"1962-02-01","FECHAINICIOPERACION":"1962-02-01","LONGITUD":"-103.47","LATITUD":"19.7101","ESTRATOUNIDAD":"URBANO","ULTIMOMOVIMIENTO":"CAMBIO","FEULMOVIMIENTO":"2011-05-10"},"15914":{"CLUES":"JCSSA012841","NOMBREENTIDAD":"JALISCO","NOMBREMUNICIPIO":"AUTLÁN DE NAVARRO","NOMBRE-LOCALIDAD":"AUTLAN DE NAVARRO","CLAVEINSTITUCION":"SSA","NOMBREUNIDAD":"ALMACÉN","DIRECCION":"ANTONIO TORRES 172","CODIGOPOSTAL":"48900","RFC":"XAXX111111","FECHACONSTRUCCION":"1958-08-01","FECHAINICIOPERACION":"1958-08-01","LONGITUD":"-104.359008","LATITUD":"19.765409","ESTRATOUNIDAD":"URBANO","ULTIMOMOVIMIENTO":"CAMBIO","FEULMOVIMIENTO":"2011-05-10"},"15915":{"CLUES":"JCSSA012853","NOMBREENTIDAD":"JALISCO","NOMBREMUNICIPIO":"PUERTO VALLARTA","NOMBRE-LOCALIDAD":"PUERTO VALLARTA","CLAVEINSTITUCION":"SSA","NOMBREUNIDAD":"ALMACÉN","DIRECCION":"CALLE JUAREZ  956, COL. CENTRO","CODIGOPOSTAL":"48300","RFC":"XAXX111111","FECHACONSTRUCCION":"1991-01-01","FECHAINICIOPERACION":"1991-01-01","LONGITUD":"-105.218","LATITUD":"20.6532","ESTRATOUNIDAD":"URBANO","ULTIMOMOVIMIENTO":"CAMBIO","FEULMOVIMIENTO":"2011-05-10"},"15917":{"CLUES":"JCSSA012870","NOMBREENTIDAD":"JALISCO","NOMBREMUNICIPIO":"ZAPOPAN","NOMBRE-LOCALIDAD":"ZAPOPAN","CLAVEINSTITUCION":"SSA","NOMBREUNIDAD":"ALMACÉN","DIRECCION":null,"CODIGOPOSTAL":"45010","RFC":"XAXX111111","FECHACONSTRUCCION":"2002-06-01","FECHAINICIOPERACION":"2005-06-06","LONGITUD":"-103.44963858","LATITUD":"20.68414898","ESTRATOUNIDAD":"URBANO","ULTIMOMOVIMIENTO":"CAMBIO","FEULMOVIMIENTO":"2011-05-10"},"15918":{"CLUES":"JCSSA012882","NOMBREENTIDAD":"JALISCO","NOMBREMUNICIPIO":"GUADALAJARA","NOMBRE-LOCALIDAD":"GUADALAJARA","CLAVEINSTITUCION":"SSA","NOMBREUNIDAD":"ALMACÉN REGIONAL TONALÁ","DIRECCION":"0","CODIGOPOSTAL":"44730","RFC":"XAXX111111","FECHACONSTRUCCION":"1999-01-01","FECHAINICIOPERACION":"2000-09-01","LONGITUD":"-103.313462","LATITUD":"20.670429","ESTRATOUNIDAD":"URBANO","ULTIMOMOVIMIENTO":"CAMBIO","FEULMOVIMIENTO":"2015-08-11"},"15919":{"CLUES":"JCSSA012894","NOMBREENTIDAD":"JALISCO","NOMBREMUNICIPIO":"SAN PEDRO TLAQUEPAQUE","NOMBRE-LOCALIDAD":"TLAQUEPAQUE","CLAVEINSTITUCION":"SSA","NOMBREUNIDAD":"ALMACÉN","DIRECCION":"CUITLAHUAC 128, COL. LAS CONCHAS","CODIGOPOSTAL":"44460","RFC":"XAXX111111","FECHACONSTRUCCION":null,"FECHAINICIOPERACION":"2011-01-01","LONGITUD":"-103.335","LATITUD":"20.6742","ESTRATOUNIDAD":"URBANO","ULTIMOMOVIMIENTO":"CAMBIO","FEULMOVIMIENTO":"2011-05-10"},"15920":{"CLUES":"JCSSA012906","NOMBREENTIDAD":"JALISCO","NOMBREMUNICIPIO":"GUADALAJARA","NOMBRE-LOCALIDAD":"GUADALAJARA","CLAVEINSTITUCION":"SSA","NOMBREUNIDAD":"ALMACÉN","DIRECCION":"0","CODIGOPOSTAL":"44460","RFC":"XAXX111111","FECHACONSTRUCCION":null,"FECHAINICIOPERACION":"2002-02-01","LONGITUD":"-103.3448845","LATITUD":"20.6631196","ESTRATOUNIDAD":"URBANO","ULTIMOMOVIMIENTO":"CAMBIO","FEULMOVIMIENTO":"2011-05-10"},"17697":{"CLUES":"MCSSA000352","NOMBREENTIDAD":"MEXICO","NOMBREMUNICIPIO":"ACULCO","NOMBRE-LOCALIDAD":"SANTIAGO OXTOC TOXHIE","CLAVEINSTITUCION":"SSA","NOMBREUNIDAD":"SANTIAGO OXTHOC TOXHIE","DIRECCION":"JUNTO IGLESIA Y ALBERGUE SANTIAGO OXTHOC","CODIGOPOSTAL":"50383","RFC":"ISE860331CR6","FECHACONSTRUCCION":null,"FECHAINICIOPERACION":"1989-09-01","LONGITUD":"-99.845533","LATITUD":"20.022492","ESTRATOUNIDAD":"RURAL","ULTIMOMOVIMIENTO":"CAMBIO","FEULMOVIMIENTO":"2020-01-15"},"17945":{"CLUES":"MCSSA002831","NOMBREENTIDAD":"MEXICO","NOMBREMUNICIPIO":"IXTAPAN DEL ORO","NOMBRE-LOCALIDAD":"IXTAPAN DEL ORO","CLAVEINSTITUCION":"SSA","NOMBREUNIDAD":"ALMACÉN IXTAPAN DEL ORO","DIRECCION":"CALLE 24 DE FEB.S\/N IXTAPAN DE ORO","CODIGOPOSTAL":"51070","RFC":"XAXX111111","FECHACONSTRUCCION":null,"FECHAINICIOPERACION":"1975-01-01","LONGITUD":"-100.265922","LATITUD":"19.26268","ESTRATOUNIDAD":"URBANO","ULTIMOMOVIMIENTO":"CAMBIO","FEULMOVIMIENTO":"2015-12-24"},"17979":{"CLUES":"MCSSA003176","NOMBREENTIDAD":"MEXICO","NOMBREMUNICIPIO":"JILOTEPEC","NOMBRE-LOCALIDAD":"SAN JUAN ACAZUCHITLAN (SAN JUANICO)","CLAVEINSTITUCION":"SSA","NOMBREUNIDAD":"SAN JUAN ACAZUCHITLAN","DIRECCION":"FRENTE ESC. PRIMARIA Y KINDER SN JUAN A.","CODIGOPOSTAL":"54274","RFC":"ISE870331CR6","FECHACONSTRUCCION":"1979-01-01","FECHAINICIOPERACION":"1979-11-01","LONGITUD":"-99.59707883192095","LATITUD":"20.146931328038985","ESTRATOUNIDAD":"RURAL","ULTIMOMOVIMIENTO":"CAMBIO","FEULMOVIMIENTO":"2020-01-15"},"18145":{"CLUES":"MCSSA004832","NOMBREENTIDAD":"MEXICO","NOMBREMUNICIPIO":"OTZOLOAPAN","NOMBRE-LOCALIDAD":"OTZOLOAPAN","CLAVEINSTITUCION":"SSA","NOMBREUNIDAD":"OTZOLOAPAN","DIRECCION":"CALLE BLAS DE LA LOZA S\/N JUNTO AL CAMPO","CODIGOPOSTAL":"51130","RFC":"XAXX111111","FECHACONSTRUCCION":null,"FECHAINICIOPERACION":"1978-03-01","LONGITUD":"-100.295242","LATITUD":"19.118725","ESTRATOUNIDAD":"URBANO","ULTIMOMOVIMIENTO":"CAMBIO","FEULMOVIMIENTO":"2015-12-24"},"18161":{"CLUES":"MCSSA004996","NOMBREENTIDAD":"MEXICO","NOMBREMUNICIPIO":"POLOTITLÁN","NOMBRE-LOCALIDAD":"POLOTITLAN DE LA ILUSTRACION","CLAVEINSTITUCION":"SSA","NOMBREUNIDAD":"ALMACÉN POLOTITLAN","DIRECCION":"ZARAGOZA S\/N POLOTITLAN","CODIGOPOSTAL":"54200","RFC":"XAXX111111","FECHACONSTRUCCION":null,"FECHAINICIOPERACION":"1972-06-01","LONGITUD":"-99.822605","LATITUD":"20.231574","ESTRATOUNIDAD":"URBANO","ULTIMOMOVIMIENTO":"CAMBIO","FEULMOVIMIENTO":"2015-12-24"},"18518":{"CLUES":"MCSSA008566","NOMBREENTIDAD":"MEXICO","NOMBREMUNICIPIO":"ZACAZONAPAN","NOMBRE-LOCALIDAD":"ZACAZONAPAN","CLAVEINSTITUCION":"SSA","NOMBREUNIDAD":"ZACAZONAPAN","DIRECCION":"AV.DE LA MAESTRA S\/N CERCA DEL TECALLI","CODIGOPOSTAL":"51160","RFC":"XAXX111111","FECHACONSTRUCCION":null,"FECHAINICIOPERACION":"1995-01-01","LONGITUD":"-100.258785","LATITUD":"19.070951","ESTRATOUNIDAD":"URBANO","ULTIMOMOVIMIENTO":"CAMBIO","FEULMOVIMIENTO":"2015-12-24"},"18828":{"CLUES":"MCSSA015304","NOMBREENTIDAD":"MEXICO","NOMBREMUNICIPIO":"ATLACOMULCO","NOMBRE-LOCALIDAD":"ATLACOMULCO DE FABELA","CLAVEINSTITUCION":"SSA","NOMBREUNIDAD":"ALMACÉN JURISDICCIONAL ATLACOMULCO","DIRECCION":"CALLE DEL MANZANO NÚMERO 3, COL. LA MORA","CODIGOPOSTAL":"50450","RFC":"XAXX111111","FECHACONSTRUCCION":null,"FECHAINICIOPERACION":"1962-01-01","LONGITUD":"-99.878265","LATITUD":"19.795547","ESTRATOUNIDAD":"URBANO","ULTIMOMOVIMIENTO":"CAMBIO","FEULMOVIMIENTO":"2015-12-24"},"18831":{"CLUES":"MCSSA015333","NOMBREENTIDAD":"MEXICO","NOMBREMUNICIPIO":"JILOTEPEC","NOMBRE-LOCALIDAD":"JILOTEPEC DE MOLINA ENRIQUEZ","CLAVEINSTITUCION":"SSA","NOMBREUNIDAD":"ALMACÉN JURISDICCIONAL JILOTEPEC","DIRECCION":"DOMICILIO CONOCIDO CANALEJAS","CODIGOPOSTAL":"54240","RFC":"XAXX111111","FECHACONSTRUCCION":null,"FECHAINICIOPERACION":"1990-06-01","LONGITUD":"-99.615104","LATITUD":"19.973527","ESTRATOUNIDAD":"URBANO","ULTIMOMOVIMIENTO":"CAMBIO","FEULMOVIMIENTO":"2015-12-24"},"18833":{"CLUES":"MCSSA015350","NOMBREENTIDAD":"MEXICO","NOMBREMUNICIPIO":"TENANGO DEL VALLE","NOMBRE-LOCALIDAD":"TENANGO DE ARISTA","CLAVEINSTITUCION":"SSA","NOMBREUNIDAD":"ALMACÉN JURISDICCIONAL TENANGO DEL VALLE","DIRECCION":"A 117 METROS DEL JARDÍN DE NIÑOS DOCTORA MARÍA MONTESSORI","CODIGOPOSTAL":"52315","RFC":"XAXX111111","FECHACONSTRUCCION":null,"FECHAINICIOPERACION":null,"LONGITUD":"-99.581535","LATITUD":"19.123886","ESTRATOUNIDAD":"URBANO","ULTIMOMOVIMIENTO":"CAMBIO","FEULMOVIMIENTO":"2016-05-26"},"18847":{"CLUES":"MCSSA015490","NOMBREENTIDAD":"MEXICO","NOMBREMUNICIPIO":"TOLUCA","NOMBRE-LOCALIDAD":"TOLUCA DE LERDO","CLAVEINSTITUCION":"SSA","NOMBREUNIDAD":"ALMACÉN GENERAL TOLUCA.","DIRECCION":"MANUEL M. GARDUÑO LOTES DEL 18 AL 21 FRACC. PARQUE INDUSTRIAL SAN ANTONIO BUENAVISTA","CODIGOPOSTAL":"50010","RFC":"XAXX111111","FECHACONSTRUCCION":null,"FECHAINICIOPERACION":null,"LONGITUD":"-99.612479","LATITUD":"19.304136","ESTRATOUNIDAD":"URBANO","ULTIMOMOVIMIENTO":"CAMBIO","FEULMOVIMIENTO":"2015-12-24"},"18855":{"CLUES":"MCSSA015572","NOMBREENTIDAD":"MEXICO","NOMBREMUNICIPIO":"TULTITLÁN","NOMBRE-LOCALIDAD":"BUENAVISTA","CLAVEINSTITUCION":"SSA","NOMBREUNIDAD":"ALMACÉN GENERAL TULTITLAN","DIRECCION":"JOSÉ MA. MORELOS Y PAVON S\/N COL. BUENA VISTA.","CODIGOPOSTAL":"54900","RFC":"XAXX111111","FECHACONSTRUCCION":null,"FECHAINICIOPERACION":null,"LONGITUD":"-99.165675","LATITUD":"19.618887","ESTRATOUNIDAD":"URBANO","ULTIMOMOVIMIENTO":"CAMBIO","FEULMOVIMIENTO":"2015-12-24"},"18858":{"CLUES":"MCSSA015601","NOMBREENTIDAD":"MEXICO","NOMBREMUNICIPIO":"OTUMBA","NOMBRE-LOCALIDAD":"OTUMBA DE GOMEZ FARIAS","CLAVEINSTITUCION":"SSA","NOMBREUNIDAD":"ALMACÉN JURISDICCIONAL TEOTIHUACÁN","DIRECCION":"FRAY FRANCISCO TEMBLEQUE NO.5 OTUMBA","CODIGOPOSTAL":"55900","RFC":"XAXX111111","FECHACONSTRUCCION":null,"FECHAINICIOPERACION":null,"LONGITUD":"-98.756373","LATITUD":"19.697766","ESTRATOUNIDAD":"URBANO","ULTIMOMOVIMIENTO":"CAMBIO","FEULMOVIMIENTO":"2015-12-24"},"18861":{"CLUES":"MCSSA015630","NOMBREENTIDAD":"MEXICO","NOMBREMUNICIPIO":"AMECAMECA","NOMBRE-LOCALIDAD":"AMECAMECA DE JUAREZ","CLAVEINSTITUCION":"SSA","NOMBREUNIDAD":"ALMACÉN JURISDICCIONAL AMECAMECA","DIRECCION":"SARABIA S\/N AMECAMECA MÉXICO A UN COSTADO DEL H.G. AMECAMECA","CODIGOPOSTAL":"56900","RFC":"XAXX111111","FECHACONSTRUCCION":null,"FECHAINICIOPERACION":null,"LONGITUD":"-98.771724","LATITUD":"19.129628","ESTRATOUNIDAD":"URBANO","ULTIMOMOVIMIENTO":"CAMBIO","FEULMOVIMIENTO":"2015-12-24"},"18866":{"CLUES":"MCSSA015683","NOMBREENTIDAD":"MEXICO","NOMBREMUNICIPIO":"NEZAHUALCÓYOTL","NOMBRE-LOCALIDAD":"CIUDAD NEZAHUALCOYOTL","CLAVEINSTITUCION":"SSA","NOMBREUNIDAD":"ALMACÉN JURISDICCIONAL NEZAHUALCOYOTL","DIRECCION":"AV. DR. GUSTAVO BAZ ESQ. FAISAN BENITO JUÁREZ 1A SECCIÓN","CODIGOPOSTAL":"57000","RFC":"XAXX111111","FECHACONSTRUCCION":null,"FECHAINICIOPERACION":null,"LONGITUD":"-99.015182","LATITUD":"19.415813","ESTRATOUNIDAD":"URBANO","ULTIMOMOVIMIENTO":"CAMBIO","FEULMOVIMIENTO":"2015-12-24"},"19135":{"CLUES":"MCSSA018371","NOMBREENTIDAD":"MEXICO","NOMBREMUNICIPIO":"TOLUCA","NOMBRE-LOCALIDAD":"TOLUCA DE LERDO","CLAVEINSTITUCION":"SSA","NOMBREUNIDAD":"ALMACÉN GENERAL DE SEGURO POPULAR","DIRECCION":"PASEO COLÓN 1007, COL. MODERNA DE LA CRUZ","CODIGOPOSTAL":"50180","RFC":"XAXX111111","FECHACONSTRUCCION":null,"FECHAINICIOPERACION":"2009-10-01","LONGITUD":"-99.570266","LATITUD":"19.283576","ESTRATOUNIDAD":"URBANO","ULTIMOMOVIMIENTO":"CAMBIO","FEULMOVIMIENTO":"2015-12-24"},"20812":{"CLUES":"MNSSA005391","NOMBREENTIDAD":"MICHOACAN DE OCAMPO","NOMBREMUNICIPIO":"PURUÁNDIRO","NOMBRE-LOCALIDAD":"PURUANDIRO","CLAVEINSTITUCION":"SSA","NOMBREUNIDAD":"ALMACEN HOSPITAL PURUANDIRO","DIRECCION":null,"CODIGOPOSTAL":"58502","RFC":null,"FECHACONSTRUCCION":"2005-05-15","FECHAINICIOPERACION":"2018-02-01","LONGITUD":"-101.522101","LATITUD":"20.12961","ESTRATOUNIDAD":"URBANO","ULTIMOMOVIMIENTO":"ALTA","FEULMOVIMIENTO":"2019-09-12"},"20855":{"CLUES":"MNSSA016364","NOMBREENTIDAD":"MICHOACAN DE OCAMPO","NOMBREMUNICIPIO":"MORELIA","NOMBRE-LOCALIDAD":"MORELIA","CLAVEINSTITUCION":"SSA","NOMBREUNIDAD":"ALMACÉN CENTRAL","DIRECCION":"MIGUEL ARREOLA NO. 500, POBLADO OCOLUSEN","CODIGOPOSTAL":"58270","RFC":"XAXX111111","FECHACONSTRUCCION":null,"FECHAINICIOPERACION":null,"LONGITUD":"-101.209","LATITUD":"19.7057","ESTRATOUNIDAD":"URBANO","ULTIMOMOVIMIENTO":"CAMBIO","FEULMOVIMIENTO":"2012-11-07"},"21561":{"CLUES":"MSSSA002234","NOMBREENTIDAD":"MORELOS","NOMBREMUNICIPIO":"JIUTEPEC","NOMBRE-LOCALIDAD":"JIUTEPEC","CLAVEINSTITUCION":"SSA","NOMBREUNIDAD":"ALMACÉN CENTRAL DE SERVICIOS DE SALUD DE MORELOS","DIRECCION":"CALLEJÓN DE DOLORES S\/N, COL. LÁZARO CÁRDENAS","CODIGOPOSTAL":"62550","RFC":"XAXX111111","FECHACONSTRUCCION":null,"FECHAINICIOPERACION":"1985-06-01","LONGITUD":"-99.1720","LATITUD":"18.8991","ESTRATOUNIDAD":"URBANO","ULTIMOMOVIMIENTO":"CAMBIO","FEULMOVIMIENTO":"2016-05-11"},"21563":{"CLUES":"MSSSA002251","NOMBREENTIDAD":"MORELOS","NOMBREMUNICIPIO":"CUERNAVACA","NOMBRE-LOCALIDAD":"CUERNAVACA","CLAVEINSTITUCION":"SSA","NOMBREUNIDAD":"ALMACÉN JURISDICCIONAL NO. I","DIRECCION":"CIRCUITO CASTILLO DE CHAPULTEPEC S\/N, COL. REVOLUCIÓN","CODIGOPOSTAL":"62070","RFC":"XAXX111111","FECHACONSTRUCCION":null,"FECHAINICIOPERACION":null,"LONGITUD":"-99.1824","LATITUD":"18.9211","ESTRATOUNIDAD":"URBANO","ULTIMOMOVIMIENTO":"CAMBIO","FEULMOVIMIENTO":"2016-05-11"},"21565":{"CLUES":"MSSSA002275","NOMBREENTIDAD":"MORELOS","NOMBREMUNICIPIO":"JOJUTLA","NOMBRE-LOCALIDAD":"JOJUTLA","CLAVEINSTITUCION":"SSA","NOMBREUNIDAD":"ALMACÉN JURISDICCIONAL NO. II","DIRECCION":"CALLEJÓN CUAUTOTOLAPAN NO. 6, COL. LÁZARO CÁRDENAS","CODIGOPOSTAL":"62780","RFC":"XAXX111111","FECHACONSTRUCCION":null,"FECHAINICIOPERACION":"1999-03-01","LONGITUD":"-99.1933","LATITUD":"18.6502","ESTRATOUNIDAD":"URBANO","ULTIMOMOVIMIENTO":"CAMBIO","FEULMOVIMIENTO":"2011-04-25"},"21567":{"CLUES":"MSSSA002292","NOMBREENTIDAD":"MORELOS","NOMBREMUNICIPIO":"CUAUTLA","NOMBRE-LOCALIDAD":"CUAUTLA","CLAVEINSTITUCION":"SSA","NOMBREUNIDAD":"ALMACÉN JURISDICCIONAL NO. III","DIRECCION":null,"CODIGOPOSTAL":"62740","RFC":"XAXX111111","FECHACONSTRUCCION":null,"FECHAINICIOPERACION":"1999-03-01","LONGITUD":"-98.9538","LATITUD":"18.8081","ESTRATOUNIDAD":"URBANO","ULTIMOMOVIMIENTO":"CAMBIO","FEULMOVIMIENTO":"2016-05-11"},"22983":{"CLUES":"NLSSA014050","NOMBREENTIDAD":"NUEVO LEON","NOMBREMUNICIPIO":"SAN NICOLÁS DE LOS GARZA","NOMBRE-LOCALIDAD":"SAN NICOLAS DE LOS GARZA","CLAVEINSTITUCION":"SSA","NOMBREUNIDAD":"ALMACÉN CENTRAL","DIRECCION":"AVE. DÍAZ ORDAZ NO.  204, COL. DÍAZ ORDAZ","CODIGOPOSTAL":"66480","RFC":"XAXX111111","FECHACONSTRUCCION":"1999-12-04","FECHAINICIOPERACION":"1977-01-04","LONGITUD":"-100.271986272","LATITUD":"25.7131708635","ESTRATOUNIDAD":"URBANO","ULTIMOMOVIMIENTO":"CAMBIO","FEULMOVIMIENTO":"2018-03-05"},"22994":{"CLUES":"NLSSA014161","NOMBREENTIDAD":"NUEVO LEON","NOMBREMUNICIPIO":"MONTERREY","NOMBRE-LOCALIDAD":"MONTERREY","CLAVEINSTITUCION":"SSA","NOMBREUNIDAD":"ALMACÉN JURISDICCIÓN # 1","DIRECCION":"ALMAZAN Y RODRIGO GOMEZ PREDIO FRANCISCO MADERO","CODIGOPOSTAL":"64240","RFC":"XAXX111111","FECHACONSTRUCCION":null,"FECHAINICIOPERACION":"2002-05-01","LONGITUD":"-100.341593509","LATITUD":"25.7401944257","ESTRATOUNIDAD":"URBANO","ULTIMOMOVIMIENTO":"CAMBIO","FEULMOVIMIENTO":"2018-03-05"},"22995":{"CLUES":"NLSSA014173","NOMBREENTIDAD":"NUEVO LEON","NOMBREMUNICIPIO":"MONTERREY","NOMBRE-LOCALIDAD":"MONTERREY","CLAVEINSTITUCION":"SSA","NOMBREUNIDAD":"ALMACÉN JURISDICCIÓN # 2","DIRECCION":"FÉLIX U. GÓMEZ Y RAFAEL NAJERA NO.  1700, COL. TERMINAL, MONTERREY NUEVO LEÓN","CODIGOPOSTAL":"64580","RFC":"XAXX111111","FECHACONSTRUCCION":"1999-12-18","FECHAINICIOPERACION":"1960-03-18","LONGITUD":"-100.295360215","LATITUD":"25.6882174848","ESTRATOUNIDAD":"URBANO","ULTIMOMOVIMIENTO":"CAMBIO","FEULMOVIMIENTO":"2018-03-05"},"22996":{"CLUES":"NLSSA014185","NOMBREENTIDAD":"NUEVO LEON","NOMBREMUNICIPIO":"MONTERREY","NOMBRE-LOCALIDAD":"MONTERREY","CLAVEINSTITUCION":"SSA","NOMBREUNIDAD":"ALMACÉN JURISDICCIÓN # 3","DIRECCION":"ERVIRA RENTERÍA NO.  900 COL. ARTURO B. DE LA GARZA EN MONTERREY, N.L.","CODIGOPOSTAL":"64730","RFC":"XAXX111111","FECHACONSTRUCCION":"1999-12-17","FECHAINICIOPERACION":"1977-11-17","LONGITUD":"-100.308705","LATITUD":"25.648825","ESTRATOUNIDAD":"URBANO","ULTIMOMOVIMIENTO":"CAMBIO","FEULMOVIMIENTO":"2018-03-05"},"22997":{"CLUES":"NLSSA014190","NOMBREENTIDAD":"NUEVO LEON","NOMBREMUNICIPIO":"GUADALUPE","NOMBRE-LOCALIDAD":"GUADALUPE","CLAVEINSTITUCION":"SSA","NOMBREUNIDAD":"ALMACÉN JURISDICCIÓN # 4","DIRECCION":"AVE. 20 DE NOVIEMBRE NO.  720 COL. 20 DE NOVIEMBRE EN GUADALUPE, N.L.","CODIGOPOSTAL":"67170","RFC":"XAXX111111","FECHACONSTRUCCION":null,"FECHAINICIOPERACION":null,"LONGITUD":"-100.226881103","LATITUD":"25.6747035653","ESTRATOUNIDAD":"URBANO","ULTIMOMOVIMIENTO":"CAMBIO","FEULMOVIMIENTO":"2018-03-05"},"22998":{"CLUES":"NLSSA014202","NOMBREENTIDAD":"NUEVO LEON","NOMBREMUNICIPIO":"SABINAS HIDALGO","NOMBRE-LOCALIDAD":"CIUDAD SABINAS HIDALGO","CLAVEINSTITUCION":"SSA","NOMBREUNIDAD":"ALMACÉN JURISDICCIÓN # 5","DIRECCION":"ALBERTO CHAPA NO.  550, COL. BELLA VISTA, SABINAS HIDALGO NUEVO LEÓN","CODIGOPOSTAL":"65270","RFC":"XAXX111111","FECHACONSTRUCCION":null,"FECHAINICIOPERACION":"1968-01-01","LONGITUD":"-100.174323","LATITUD":"26.496111","ESTRATOUNIDAD":"URBANO","ULTIMOMOVIMIENTO":"CAMBIO","FEULMOVIMIENTO":"2019-10-14"},"22999":{"CLUES":"NLSSA014214","NOMBREENTIDAD":"NUEVO LEON","NOMBREMUNICIPIO":"CADEREYTA JIMÉNEZ","NOMBRE-LOCALIDAD":"CADEREYTA JIMENEZ","CLAVEINSTITUCION":"SSA","NOMBREUNIDAD":"ALMACÉN JURISDICCIÓN # 6","DIRECCION":"ZARAGOZA NO.  500 ESQUINA CON MARTIN DE ZAVALA, CADEREYTA JIMÉNEZ NUEVO LEÓN","CODIGOPOSTAL":"67480","RFC":"XAXX111111","FECHACONSTRUCCION":null,"FECHAINICIOPERACION":"1982-01-01","LONGITUD":"-100.00703418","LATITUD":"25.5935010202","ESTRATOUNIDAD":"URBANO","ULTIMOMOVIMIENTO":"CAMBIO","FEULMOVIMIENTO":"2018-03-05"},"23000":{"CLUES":"NLSSA014226","NOMBREENTIDAD":"NUEVO LEON","NOMBREMUNICIPIO":"MONTEMORELOS","NOMBRE-LOCALIDAD":"MONTEMORELOS","CLAVEINSTITUCION":"SSA","NOMBREUNIDAD":"ALMACÉN JURISDICCIÓN # 7","DIRECCION":"AMEL BAROCIO Y PANAMA S\/N COL. ZARAGOZA","CODIGOPOSTAL":"67500","RFC":"XAXX111111","FECHACONSTRUCCION":null,"FECHAINICIOPERACION":"1986-01-01","LONGITUD":"-99.822453","LATITUD":"25.194416","ESTRATOUNIDAD":"URBANO","ULTIMOMOVIMIENTO":"CAMBIO","FEULMOVIMIENTO":"2018-03-05"},"23001":{"CLUES":"NLSSA014231","NOMBREENTIDAD":"NUEVO LEON","NOMBREMUNICIPIO":"DOCTOR ARROYO","NOMBRE-LOCALIDAD":"DOCTOR ARROYO","CLAVEINSTITUCION":"SSA","NOMBREUNIDAD":"ALMACÉN JURISDICCIÓN # 8","DIRECCION":"PADRE SEVEREANO MARTINEZ KM 1 CARRETERA MATEHUALA, DOCTOR ARROYO NUEVO LEÓN","CODIGOPOSTAL":"67900","RFC":"XAXX111111","FECHACONSTRUCCION":null,"FECHAINICIOPERACION":"1991-07-01","LONGITUD":"-100.18868747","LATITUD":"23.6775112","ESTRATOUNIDAD":"URBANO","ULTIMOMOVIMIENTO":"CAMBIO","FEULMOVIMIENTO":"2018-03-05"},"23658":{"CLUES":"NTSSA015076","NOMBREENTIDAD":"NAYARIT","NOMBREMUNICIPIO":"TEPIC","NOMBRE-LOCALIDAD":"TEPIC","CLAVEINSTITUCION":"SSA","NOMBREUNIDAD":"ALMACÉN ESTATAL","DIRECCION":null,"CODIGOPOSTAL":"63184","RFC":"XAXX111111","FECHACONSTRUCCION":null,"FECHAINICIOPERACION":"1968-01-01","LONGITUD":"-104.884989","LATITUD":"21.509645","ESTRATOUNIDAD":"URBANO","ULTIMOMOVIMIENTO":"CAMBIO","FEULMOVIMIENTO":"2016-07-05"},"25638":{"CLUES":"OCSSA007722","NOMBREENTIDAD":"OAXACA","NOMBREMUNICIPIO":"HEROICA CIUDAD DE JUCHITÁN DE ZARAGOZA","NOMBRE-LOCALIDAD":"HEROICA CIUDAD DE JUCHITAN DE ZARAGOZA","CLAVEINSTITUCION":"SSA","NOMBREUNIDAD":"ALMACEN JURISDICCIONAL","DIRECCION":"EL INMUEBLE  QUE SE UTILIZA COMO ALMACÉN JURISDICCIONAL, \n ESTA JUNTO AL JUZGADO PENAL","CODIGOPOSTAL":"70000","RFC":"SSO960923M2A","FECHACONSTRUCCION":null,"FECHAINICIOPERACION":"2019-06-01","LONGITUD":"-95.013148","LATITUD":"16.439165","ESTRATOUNIDAD":"URBANO","ULTIMOMOVIMIENTO":"ALTA","FEULMOVIMIENTO":"2019-08-16"},"25639":{"CLUES":"OCSSA007734","NOMBREENTIDAD":"OAXACA","NOMBREMUNICIPIO":"HEROICA CIUDAD DE HUAJUAPAN DE LEÓN","NOMBRE-LOCALIDAD":"HEROICA CIUDAD DE HUAJUAPAN DE LEON","CLAVEINSTITUCION":"SSA","NOMBREUNIDAD":"ALMACEN JURISDICCIONAL","DIRECCION":"A UN COSTADO DE LA CARRETERA INTERNACIONAL A MEXIO","CODIGOPOSTAL":"69006","RFC":"SSO960923M2A","FECHACONSTRUCCION":null,"FECHAINICIOPERACION":"2019-06-01","LONGITUD":"-97.790822","LATITUD":"17.819044","ESTRATOUNIDAD":"URBANO","ULTIMOMOVIMIENTO":"ALTA","FEULMOVIMIENTO":"2019-08-16"},"25687":{"CLUES":"OCSSA014764","NOMBREENTIDAD":"OAXACA","NOMBREMUNICIPIO":"SAN BARTOLO COYOTEPEC","NOMBRE-LOCALIDAD":"REYES MANTECON","CLAVEINSTITUCION":"SSA","NOMBREUNIDAD":"ALMACÉN ESTATAL","DIRECCION":"CARRETERA A SOLA DE VEGA","CODIGOPOSTAL":"71256","RFC":"XAXX111111","FECHACONSTRUCCION":null,"FECHAINICIOPERACION":null,"LONGITUD":"-96.728","LATITUD":"16.9061","ESTRATOUNIDAD":"URBANO","ULTIMOMOVIMIENTO":"CAMBIO","FEULMOVIMIENTO":"2015-12-24"},"25700":{"CLUES":"OCSSA014916","NOMBREENTIDAD":"OAXACA","NOMBREMUNICIPIO":"OAXACA DE JUÁREZ","NOMBRE-LOCALIDAD":"OAXACA DE JUAREZ","CLAVEINSTITUCION":"SSA","NOMBREUNIDAD":"ALMACÉN JURISDICCIONAL","DIRECCION":"EMILIANO ZAPATA NO. 127 COL. GOMEZ SANDOVAL OAXACA, OAX.","CODIGOPOSTAL":"99999","RFC":"XAXX111111","FECHACONSTRUCCION":null,"FECHAINICIOPERACION":null,"LONGITUD":"-96.7361","LATITUD":"17.0816","ESTRATOUNIDAD":"URBANO","ULTIMOMOVIMIENTO":"CAMBIO","FEULMOVIMIENTO":"2015-12-24"},"25702":{"CLUES":"OCSSA014950","NOMBREENTIDAD":"OAXACA","NOMBREMUNICIPIO":"SAN JUAN BAUTISTA TUXTEPEC","NOMBRE-LOCALIDAD":"SAN JUAN BAUTISTA TUXTEPEC","CLAVEINSTITUCION":"SSA","NOMBREUNIDAD":"ALMACÉN JURISDICCIONAL","DIRECCION":"20 DE NOVIEMBRE S\/N COL. CENTRO TUXTEPEC, OAX.","CODIGOPOSTAL":"68300","RFC":"XAXX111111","FECHACONSTRUCCION":null,"FECHAINICIOPERACION":null,"LONGITUD":"-96.1438","LATITUD":"18.0678","ESTRATOUNIDAD":"URBANO","ULTIMOMOVIMIENTO":"CAMBIO","FEULMOVIMIENTO":"2015-12-24"},"25703":{"CLUES":"OCSSA014974","NOMBREENTIDAD":"OAXACA","NOMBREMUNICIPIO":"SAN PEDRO MIXTEPEC -DTO. 22 -","NOMBRE-LOCALIDAD":"PUERTO ESCONDIDO","CLAVEINSTITUCION":"SSA","NOMBREUNIDAD":"ALMACÉN JURISDICCIONAL","DIRECCION":"CARR. COSTERA DEL PACIFICO KM. 137.5 PUERTO ESCONDIDO, OAX.","CODIGOPOSTAL":"71980","RFC":"XAXX111111","FECHACONSTRUCCION":null,"FECHAINICIOPERACION":null,"LONGITUD":"-97.0763","LATITUD":"15.8774","ESTRATOUNIDAD":"URBANO","ULTIMOMOVIMIENTO":"CAMBIO","FEULMOVIMIENTO":"2015-12-24"},"25705":{"CLUES":"OCSSA015015","NOMBREENTIDAD":"OAXACA","NOMBREMUNICIPIO":"TLACOLULA DE MATAMOROS","NOMBRE-LOCALIDAD":"TLACOLULA DE MATAMOROS","CLAVEINSTITUCION":"SSA","NOMBREUNIDAD":"ALMACÉN JURISDICCIONAL","DIRECCION":"AV. JUÁREZ S\/N COL. CENTRO TLACOLULA DE MATAMOROS, OAX.","CODIGOPOSTAL":"70400","RFC":"XAXX111111","FECHACONSTRUCCION":null,"FECHAINICIOPERACION":null,"LONGITUD":"-96.476","LATITUD":"16.9565","ESTRATOUNIDAD":"URBANO","ULTIMOMOVIMIENTO":"CAMBIO","FEULMOVIMIENTO":"2015-12-24"},"28194":{"CLUES":"PLSSA006306","NOMBREENTIDAD":"PUEBLA","NOMBREMUNICIPIO":"CUAUTLANCINGO","NOMBRE-LOCALIDAD":"SANCTORUM","CLAVEINSTITUCION":"SSA","NOMBREUNIDAD":"ALMACÉN CENTRAL DE LOS SERVICIOS DE SALUD DEL ESTADO DE PUEBLA","DIRECCION":null,"CODIGOPOSTAL":"72730","RFC":"XAXX111111","FECHACONSTRUCCION":"2007-01-01","FECHAINICIOPERACION":"2011-11-01","LONGITUD":"-98.253449","LATITUD":"19.115249","ESTRATOUNIDAD":"URBANO","ULTIMOMOVIMIENTO":"ALTA","FEULMOVIMIENTO":"2019-03-27"},"28333":{"CLUES":"PLSSA014794","NOMBREENTIDAD":"PUEBLA","NOMBREMUNICIPIO":"HUAUCHINANGO","NOMBRE-LOCALIDAD":"HUAUCHINANGO","CLAVEINSTITUCION":"SSA","NOMBREUNIDAD":"ALMACÉN JURISDICCIONAL","DIRECCION":"CAMINO A CATALINA S\/N, COL. EL POTRO","CODIGOPOSTAL":"73160","RFC":"XAXX111111","FECHACONSTRUCCION":"1991-06-01","FECHAINICIOPERACION":"1991-06-01","LONGITUD":"-98.059","LATITUD":"20.175","ESTRATOUNIDAD":"URBANO","ULTIMOMOVIMIENTO":"CAMBIO","FEULMOVIMIENTO":"2015-12-24"},"28334":{"CLUES":"PLSSA014806","NOMBREENTIDAD":"PUEBLA","NOMBREMUNICIPIO":"CHIGNAHUAPAN","NOMBRE-LOCALIDAD":"CIUDAD DE CHIGNAHUAPAN","CLAVEINSTITUCION":"SSA","NOMBREUNIDAD":"ALMACÉN JURISDICCIONAL","DIRECCION":"CARRETERA A ZACATLAN S\/N  KM 5","CODIGOPOSTAL":"73300","RFC":"XAXX111111","FECHACONSTRUCCION":null,"FECHAINICIOPERACION":"1979-05-01","LONGITUD":"-98.0316","LATITUD":"19.8432","ESTRATOUNIDAD":"URBANO","ULTIMOMOVIMIENTO":"CAMBIO","FEULMOVIMIENTO":"2011-05-18"},"28335":{"CLUES":"PLSSA014811","NOMBREENTIDAD":"PUEBLA","NOMBREMUNICIPIO":"ZACAPOAXTLA","NOMBRE-LOCALIDAD":"ZACAPOAXTLA","CLAVEINSTITUCION":"SSA","NOMBREUNIDAD":"ALMACÉN JURISDICCIONAL","DIRECCION":"EL TRIUNFO NO. 6, CENTRO","CODIGOPOSTAL":"73680","RFC":"XAXX111111","FECHACONSTRUCCION":null,"FECHAINICIOPERACION":"1991-01-01","LONGITUD":"-97.5899","LATITUD":"19.8766","ESTRATOUNIDAD":"URBANO","ULTIMOMOVIMIENTO":"CAMBIO","FEULMOVIMIENTO":"2011-05-18"},"28336":{"CLUES":"PLSSA014823","NOMBREENTIDAD":"PUEBLA","NOMBREMUNICIPIO":"ZACAPOAXTLA","NOMBRE-LOCALIDAD":"ZACAPOAXTLA","CLAVEINSTITUCION":"SSA","NOMBREUNIDAD":"ALMACÉN JURISDICCIONAL PAC","DIRECCION":"BARRIO AYOCO, S\/NO.CONOCIDO","CODIGOPOSTAL":"73680","RFC":"XAXX111111","FECHACONSTRUCCION":null,"FECHAINICIOPERACION":"1998-05-01","LONGITUD":"-97.5899","LATITUD":"19.8766","ESTRATOUNIDAD":"URBANO","ULTIMOMOVIMIENTO":"CAMBIO","FEULMOVIMIENTO":"2011-05-18"},"28337":{"CLUES":"PLSSA014835","NOMBREENTIDAD":"PUEBLA","NOMBREMUNICIPIO":"SAN SALVADOR EL SECO","NOMBRE-LOCALIDAD":"SAN SALVADOR EL SECO","CLAVEINSTITUCION":"SSA","NOMBREUNIDAD":"ALMACÉN JURISDICCIONAL","DIRECCION":"13 SUR NO. 354, EL SECO BARRIO XILOTEPEC","CODIGOPOSTAL":"75160","RFC":"XAXX111111","FECHACONSTRUCCION":null,"FECHAINICIOPERACION":"1999-02-01","LONGITUD":"-97.646","LATITUD":"19.1367","ESTRATOUNIDAD":"URBANO","ULTIMOMOVIMIENTO":"CAMBIO","FEULMOVIMIENTO":"2011-05-18"},"28339":{"CLUES":"PLSSA014852","NOMBREENTIDAD":"PUEBLA","NOMBREMUNICIPIO":"PUEBLA","NOMBRE-LOCALIDAD":"HEROICA PUEBLA DE ZARAGOZA","CLAVEINSTITUCION":"SSA","NOMBREUNIDAD":"ALMACÉN DEL HOSPITAL PSIQUIÁTRICO","DIRECCION":"KM. 7.5 CARRETERA A VALSEQUILLO, EL BATAN","CODIGOPOSTAL":"72573","RFC":"XAXX111111","FECHACONSTRUCCION":null,"FECHAINICIOPERACION":"1967-04-01","LONGITUD":"-98.1912","LATITUD":"19.0398","ESTRATOUNIDAD":"URBANO","ULTIMOMOVIMIENTO":"CAMBIO","FEULMOVIMIENTO":"2011-05-18"},"28340":{"CLUES":"PLSSA014864","NOMBREENTIDAD":"PUEBLA","NOMBREMUNICIPIO":"PUEBLA","NOMBRE-LOCALIDAD":"HEROICA PUEBLA DE ZARAGOZA","CLAVEINSTITUCION":"SSA","NOMBREUNIDAD":"ALMACÉN JURISDICCIONAL","DIRECCION":"KM. 7.5 CARRETERA A VALSEQUILLO, EL BATAN","CODIGOPOSTAL":"72573","RFC":"XAXX111111","FECHACONSTRUCCION":null,"FECHAINICIOPERACION":"1995-01-01","LONGITUD":"-98.1912","LATITUD":"19.0398","ESTRATOUNIDAD":"URBANO","ULTIMOMOVIMIENTO":"CAMBIO","FEULMOVIMIENTO":"2011-05-18"},"28341":{"CLUES":"PLSSA014876","NOMBREENTIDAD":"PUEBLA","NOMBREMUNICIPIO":"PUEBLA","NOMBRE-LOCALIDAD":"HEROICA PUEBLA DE ZARAGOZA","CLAVEINSTITUCION":"SSA","NOMBREUNIDAD":"ALMACÉN DE MEDICAMENTOS Y MATERIAL DE CURACIÓN","DIRECCION":"ANTIGUO CAMINO A GUADALUPE HIDALGO NO.11350","CODIGOPOSTAL":"72490","RFC":"XAXX111111","FECHACONSTRUCCION":null,"FECHAINICIOPERACION":"1993-04-01","LONGITUD":"-98.1912","LATITUD":"19.0398","ESTRATOUNIDAD":"URBANO","ULTIMOMOVIMIENTO":"CAMBIO","FEULMOVIMIENTO":"2011-05-18"},"28342":{"CLUES":"PLSSA014881","NOMBREENTIDAD":"PUEBLA","NOMBREMUNICIPIO":"IZÚCAR DE MATAMOROS","NOMBRE-LOCALIDAD":"IZUCAR DE MATAMOROS","CLAVEINSTITUCION":"SSA","NOMBREUNIDAD":"ALMACÉN JURISDICCIONAL","DIRECCION":"AV. CHABACANO S\/N RANCHO JUANITOS","CODIGOPOSTAL":"74400","RFC":"XAXX111111","FECHACONSTRUCCION":null,"FECHAINICIOPERACION":"1999-12-01","LONGITUD":"-98.4872","LATITUD":"18.5998","ESTRATOUNIDAD":"URBANO","ULTIMOMOVIMIENTO":"CAMBIO","FEULMOVIMIENTO":"2011-05-18"},"28343":{"CLUES":"PLSSA014893","NOMBREENTIDAD":"PUEBLA","NOMBREMUNICIPIO":"ACATLÁN","NOMBRE-LOCALIDAD":"ACATLAN DE OSORIO","CLAVEINSTITUCION":"SSA","NOMBREUNIDAD":"ALMACÉN JURISDICCIONAL","DIRECCION":"UNIDAD HABITACIONAL FOVISSTE, CAMINO A LOS HOBOS S\/N","CODIGOPOSTAL":"74940","RFC":"XAXX111111","FECHACONSTRUCCION":null,"FECHAINICIOPERACION":"1999-06-01","LONGITUD":"-98.0395","LATITUD":"18.2049","ESTRATOUNIDAD":"URBANO","ULTIMOMOVIMIENTO":"CAMBIO","FEULMOVIMIENTO":"2011-05-18"},"28344":{"CLUES":"PLSSA014905","NOMBREENTIDAD":"PUEBLA","NOMBREMUNICIPIO":"TEPEXI DE RODRÍGUEZ","NOMBRE-LOCALIDAD":"TEPEXI DE RODRIGUEZ","CLAVEINSTITUCION":"SSA","NOMBREUNIDAD":"ALMACÉN JURISDICCIONAL","DIRECCION":"AV.MATAMOROS NO. 5, BARRIO SAN SEBASTIAN","CODIGOPOSTAL":"74690","RFC":"XAXX111111","FECHACONSTRUCCION":null,"FECHAINICIOPERACION":"1999-09-01","LONGITUD":"-97.9273","LATITUD":"18.5834","ESTRATOUNIDAD":"URBANO","ULTIMOMOVIMIENTO":"CAMBIO","FEULMOVIMIENTO":"2011-05-18"},"28345":{"CLUES":"PLSSA014910","NOMBREENTIDAD":"PUEBLA","NOMBREMUNICIPIO":"TEPEXI DE RODRÍGUEZ","NOMBRE-LOCALIDAD":"TEPEXI DE RODRIGUEZ","CLAVEINSTITUCION":"SSA","NOMBREUNIDAD":"ALMACÉN JURISDICCIONAL PAC","DIRECCION":"AV.MATAMOROS NO. 5, BARRIO SAN SEBASTIAN","CODIGOPOSTAL":"74690","RFC":"XAXX111111","FECHACONSTRUCCION":null,"FECHAINICIOPERACION":"2000-01-01","LONGITUD":"-97.9273","LATITUD":"18.5834","ESTRATOUNIDAD":"URBANO","ULTIMOMOVIMIENTO":"CAMBIO","FEULMOVIMIENTO":"2011-05-18"},"28346":{"CLUES":"PLSSA014922","NOMBREENTIDAD":"PUEBLA","NOMBREMUNICIPIO":"TEHUACÁN","NOMBRE-LOCALIDAD":"TEHUACAN","CLAVEINSTITUCION":"SSA","NOMBREUNIDAD":"ALMACÉN JURISDICCIONAL","DIRECCION":"PROL. OAXACA S\/NO. COL MÉXICO","CODIGOPOSTAL":"75764","RFC":"XAXX111111","FECHACONSTRUCCION":null,"FECHAINICIOPERACION":null,"LONGITUD":"-97.4184","LATITUD":"18.4469","ESTRATOUNIDAD":"URBANO","ULTIMOMOVIMIENTO":"CAMBIO","FEULMOVIMIENTO":"2015-12-24"},"29037":{"CLUES":"QRSSA017564","NOMBREENTIDAD":"QUINTANA ROO","NOMBREMUNICIPIO":"OTHÓN P. BLANCO","NOMBRE-LOCALIDAD":"SUBTENIENTE LOPEZ","CLAVEINSTITUCION":"SSA","NOMBREUNIDAD":"ALMACÉN ESTATAL CHETUMAL","DIRECCION":"AV. MÉXICO S\/N COL.","CODIGOPOSTAL":"77900","RFC":"XAXX111111","FECHACONSTRUCCION":"1987-01-01","FECHAINICIOPERACION":"1988-11-01","LONGITUD":"-88.3931","LATITUD":"18.4936","ESTRATOUNIDAD":"RURAL","ULTIMOMOVIMIENTO":"CAMBIO","FEULMOVIMIENTO":"2015-12-24"},"29041":{"CLUES":"QRSSA017605","NOMBREENTIDAD":"QUINTANA ROO","NOMBREMUNICIPIO":"BENITO JUÁREZ","NOMBRE-LOCALIDAD":"CANCUN","CLAVEINSTITUCION":"SSA","NOMBREUNIDAD":"ALMACÉN JURISDICCIONAL JS2","DIRECCION":"MZN 221, LOTE 1 NO.032 COL. REGION 21","CODIGOPOSTAL":"77518","RFC":"XAXX111111","FECHACONSTRUCCION":"2003-01-01","FECHAINICIOPERACION":"2004-12-01","LONGITUD":"-86.8475","LATITUD":"21.1606","ESTRATOUNIDAD":"URBANO","ULTIMOMOVIMIENTO":"CAMBIO","FEULMOVIMIENTO":"2015-12-24"},"29043":{"CLUES":"QRSSA017622","NOMBREENTIDAD":"QUINTANA ROO","NOMBREMUNICIPIO":"FELIPE CARRILLO PUERTO","NOMBRE-LOCALIDAD":"FELIPE CARRILLO PUERTO","CLAVEINSTITUCION":"SSA","NOMBREUNIDAD":"ALMACÉN JURISDICCIONAL JS3","DIRECCION":"AV. BENITO JUÁREZ S\/N ENTRE 51 Y 53 COL. JUAN BAUTISTA VEGA","CODIGOPOSTAL":"77250","RFC":"XAXX111111","FECHACONSTRUCCION":"1987-01-01","FECHAINICIOPERACION":"1988-02-01","LONGITUD":"-88.0453","LATITUD":"19.5786","ESTRATOUNIDAD":"URBANO","ULTIMOMOVIMIENTO":"CAMBIO","FEULMOVIMIENTO":"2015-12-24"},"29671":{"CLUES":"QTSSA002744","NOMBREENTIDAD":"QUERETARO","NOMBREMUNICIPIO":"CORREGIDORA","NOMBRE-LOCALIDAD":"SAN JOSE DE LOS OLVERA","CLAVEINSTITUCION":"SSA","NOMBREUNIDAD":"CENTRO DE DISTRIBUCIÓN ESTATAL","DIRECCION":"FRENTE A LA UNIDAD DEPORTIVA DE LA UAQ, DETRAS DE LABORATORIOS GOCA","CODIGOPOSTAL":"76902","RFC":"SSE961129UE9","FECHACONSTRUCCION":null,"FECHAINICIOPERACION":"2016-01-02","LONGITUD":"-100.418775","LATITUD":"20.555753","ESTRATOUNIDAD":"URBANO","ULTIMOMOVIMIENTO":"ALTA","FEULMOVIMIENTO":"2019-03-19"},"29704":{"CLUES":"QTSSA012101","NOMBREENTIDAD":"QUERETARO","NOMBREMUNICIPIO":"QUERÉTARO","NOMBRE-LOCALIDAD":"SANTIAGO DE QUERETARO","CLAVEINSTITUCION":"SSA","NOMBREUNIDAD":"ALMACÉN DE LA JURISDICCIÓN SANITARIA I","DIRECCION":"CIRCUITO MOISÉS SOLANA S\/N COL. VISTA ALEGRE","CODIGOPOSTAL":"76070","RFC":"XAXX111111","FECHACONSTRUCCION":null,"FECHAINICIOPERACION":"2001-01-01","LONGITUD":"-100.404","LATITUD":"20.6147","ESTRATOUNIDAD":"URBANO","ULTIMOMOVIMIENTO":"CAMBIO","FEULMOVIMIENTO":"2015-05-29"},"29707":{"CLUES":"QTSSA012130","NOMBREENTIDAD":"QUERETARO","NOMBREMUNICIPIO":"QUERÉTARO","NOMBRE-LOCALIDAD":"SANTIAGO DE QUERETARO","CLAVEINSTITUCION":"SSA","NOMBREUNIDAD":"ALMACÉN CENTRAL","DIRECCION":"CIRCUITO MOISÉS SOLANA S\/N COL. VISTA ALEGRE","CODIGOPOSTAL":"76070","RFC":"XAXX111111","FECHACONSTRUCCION":null,"FECHAINICIOPERACION":"1985-01-01","LONGITUD":"-100.404","LATITUD":"20.6147","ESTRATOUNIDAD":"URBANO","ULTIMOMOVIMIENTO":"CAMBIO","FEULMOVIMIENTO":"2015-05-29"},"29711":{"CLUES":"QTSSA012171","NOMBREENTIDAD":"QUERETARO","NOMBREMUNICIPIO":"SAN JUAN DEL RÍO","NOMBRE-LOCALIDAD":"SAN JUAN DEL RIO","CLAVEINSTITUCION":"SSA","NOMBREUNIDAD":"ALMACÉN DE LA JURISDICCIÓN SANITARIA II","DIRECCION":"CARR. PANAMERICANA S\/N, COL. GUADALUPE DE LAS PEÑAS","CODIGOPOSTAL":"76800","RFC":"XAXX111111","FECHACONSTRUCCION":null,"FECHAINICIOPERACION":"1997-01-01","LONGITUD":"-99.9735","LATITUD":"20.4035","ESTRATOUNIDAD":"URBANO","ULTIMOMOVIMIENTO":"CAMBIO","FEULMOVIMIENTO":"2009-07-09"},"29715":{"CLUES":"QTSSA012212","NOMBREENTIDAD":"QUERETARO","NOMBREMUNICIPIO":"CADEREYTA DE MONTES","NOMBRE-LOCALIDAD":"CADEREYTA DE MONTES","CLAVEINSTITUCION":"SSA","NOMBREUNIDAD":"ALMACÉN DE LA JURISDICCIÓN SANITARIA III","DIRECCION":"MELCHOR OCAMPO NO. 1, COL. CENTRO","CODIGOPOSTAL":"76500","RFC":"XAXX111111","FECHACONSTRUCCION":null,"FECHAINICIOPERACION":"2001-01-01","LONGITUD":"-99.8214","LATITUD":"20.6923","ESTRATOUNIDAD":"URBANO","ULTIMOMOVIMIENTO":"CAMBIO","FEULMOVIMIENTO":"2009-07-09"},"29717":{"CLUES":"QTSSA012236","NOMBREENTIDAD":"QUERETARO","NOMBREMUNICIPIO":"JALPAN DE SERRA","NOMBRE-LOCALIDAD":"JALPAN DE SERRA","CLAVEINSTITUCION":"SSA","NOMBREUNIDAD":"ALMACÉN DE LA JURISDICCIÓN SANITARIA IV","DIRECCION":"JUÁREZ NO. 2 COL. CENTRO","CODIGOPOSTAL":"76340","RFC":"XAXX111111","FECHACONSTRUCCION":null,"FECHAINICIOPERACION":null,"LONGITUD":"-99.4695","LATITUD":"21.2174","ESTRATOUNIDAD":"URBANO","ULTIMOMOVIMIENTO":"CAMBIO","FEULMOVIMIENTO":"2013-04-11"},"30670":{"CLUES":"SLSSA002590","NOMBREENTIDAD":"SINALOA","NOMBREMUNICIPIO":"CULIACÁN","NOMBRE-LOCALIDAD":"EL DIEZ","CLAVEINSTITUCION":"SSA","NOMBREUNIDAD":"CENTRO LOGISTISCO DE LOS SERVICIOS DE SALUD DE SINALOA","DIRECCION":null,"CODIGOPOSTAL":"80300","RFC":"SSS9610231Y3","FECHACONSTRUCCION":null,"FECHAINICIOPERACION":"2013-09-17","LONGITUD":"-107.4558","LATITUD":"24.7402","ESTRATOUNIDAD":"URBANO","ULTIMOMOVIMIENTO":"ALTA","FEULMOVIMIENTO":"2020-01-09"},"31715":{"CLUES":"SPSSA016870","NOMBREENTIDAD":"SAN LUIS POTOSI","NOMBREMUNICIPIO":"SAN LUIS POTOSÍ","NOMBRE-LOCALIDAD":"SAN LUIS POTOSI","CLAVEINSTITUCION":"SSA","NOMBREUNIDAD":"ALMACÉN ESTATAL","DIRECCION":null,"CODIGOPOSTAL":"99999","RFC":"XAXX111111","FECHACONSTRUCCION":"1995-01-01","FECHAINICIOPERACION":"1995-08-30","LONGITUD":"-100.974149","LATITUD":"22.168138","ESTRATOUNIDAD":"URBANO","ULTIMOMOVIMIENTO":"CAMBIO","FEULMOVIMIENTO":"2011-05-10"},"31721":{"CLUES":"SPSSA016935","NOMBREENTIDAD":"SAN LUIS POTOSI","NOMBREMUNICIPIO":"SAN LUIS POTOSÍ","NOMBRE-LOCALIDAD":"SAN LUIS POTOSI","CLAVEINSTITUCION":"SSA","NOMBREUNIDAD":"ALMACÉN JURISDICCIONAL, JURISD. NO. I","DIRECCION":null,"CODIGOPOSTAL":"78339","RFC":"XAXX111111","FECHACONSTRUCCION":"1955-01-01","FECHAINICIOPERACION":"1955-01-01","LONGITUD":"-100.955355161542","LATITUD":"22.1783575689983","ESTRATOUNIDAD":"URBANO","ULTIMOMOVIMIENTO":"CAMBIO","FEULMOVIMIENTO":"2011-05-10"},"31723":{"CLUES":"SPSSA016952","NOMBREENTIDAD":"SAN LUIS POTOSI","NOMBREMUNICIPIO":"MATEHUALA","NOMBRE-LOCALIDAD":"MATEHUALA","CLAVEINSTITUCION":"SSA","NOMBREUNIDAD":"ALMACÉN JURISDICCIONAL II","DIRECCION":null,"CODIGOPOSTAL":"78724","RFC":"XAXX111111","FECHACONSTRUCCION":"2013-11-13","FECHAINICIOPERACION":"1996-06-15","LONGITUD":"-100.644381","LATITUD":"23.641824","ESTRATOUNIDAD":"URBANO","ULTIMOMOVIMIENTO":"CAMBIO","FEULMOVIMIENTO":"2016-10-11"},"31725":{"CLUES":"SPSSA016976","NOMBREENTIDAD":"SAN LUIS POTOSI","NOMBREMUNICIPIO":"SOLEDAD DE GRACIANO SÁNCHEZ","NOMBRE-LOCALIDAD":"SOLEDAD DE GRACIANO SANCHEZ","CLAVEINSTITUCION":"SSA","NOMBREUNIDAD":"-ALMACÉN JURISDICCINAL","DIRECCION":"5 DE MAYO 111, SOLEDAD DE G. SÁNCHEZ","CODIGOPOSTAL":"78430","RFC":"XAXX111111","FECHACONSTRUCCION":"1993-01-01","FECHAINICIOPERACION":"1994-03-02","LONGITUD":"-100.929","LATITUD":"22.1756","ESTRATOUNIDAD":"URBANO","ULTIMOMOVIMIENTO":"CAMBIO","FEULMOVIMIENTO":"2016-10-11"},"31727":{"CLUES":"SPSSA016993","NOMBREENTIDAD":"SAN LUIS POTOSI","NOMBREMUNICIPIO":"RIOVERDE","NOMBRE-LOCALIDAD":"RIOVERDE","CLAVEINSTITUCION":"SSA","NOMBREUNIDAD":"ALMACÉN JURISDCCIONAL","DIRECCION":null,"CODIGOPOSTAL":"79610","RFC":"XAXX111111","FECHACONSTRUCCION":"1996-01-01","FECHAINICIOPERACION":"1996-05-01","LONGITUD":"-99.997596","LATITUD":"21.93751","ESTRATOUNIDAD":"URBANO","ULTIMOMOVIMIENTO":"CAMBIO","FEULMOVIMIENTO":"2011-05-10"},"31729":{"CLUES":"SPSSA017010","NOMBREENTIDAD":"SAN LUIS POTOSI","NOMBREMUNICIPIO":"CIUDAD VALLES","NOMBRE-LOCALIDAD":"CIUDAD VALLES","CLAVEINSTITUCION":"SSA","NOMBREUNIDAD":"ALMACÉN JURISDICCIONAL.","DIRECCION":null,"CODIGOPOSTAL":"79000","RFC":"XAXX111111","FECHACONSTRUCCION":"1998-01-01","FECHAINICIOPERACION":"1999-05-15","LONGITUD":"-99.023357","LATITUD":"21.986454","ESTRATOUNIDAD":"URBANO","ULTIMOMOVIMIENTO":"CAMBIO","FEULMOVIMIENTO":"2011-05-10"},"31731":{"CLUES":"SPSSA017034","NOMBREENTIDAD":"SAN LUIS POTOSI","NOMBREMUNICIPIO":"TAMAZUNCHALE","NOMBRE-LOCALIDAD":"IXTLAPALACO","CLAVEINSTITUCION":"SSA","NOMBREUNIDAD":"ALMACÉN JURISDICCINAL.","DIRECCION":null,"CODIGOPOSTAL":"79960","RFC":"XAXX111111","FECHACONSTRUCCION":"1998-01-01","FECHAINICIOPERACION":"1998-05-01","LONGITUD":"-98.768614","LATITUD":"21.268215","ESTRATOUNIDAD":"RURAL","ULTIMOMOVIMIENTO":"CAMBIO","FEULMOVIMIENTO":"2011-05-10"},"31732":{"CLUES":"SPSSA017046","NOMBREENTIDAD":"SAN LUIS POTOSI","NOMBREMUNICIPIO":"TAMAZUNCHALE","NOMBRE-LOCALIDAD":"CHAPULHUACANITO","CLAVEINSTITUCION":"SSA","NOMBREUNIDAD":"-ALMACÉN JURISDICCIONAL DE PALUDISMO","DIRECCION":"AVENIDA 20 DE NOVIEMBRE, COL. BENITO JUÁREZ","CODIGOPOSTAL":"79980","RFC":"XAXX111111","FECHACONSTRUCCION":"2014-03-20","FECHAINICIOPERACION":"1985-03-13","LONGITUD":"-98.777106","LATITUD":"21.265703","ESTRATOUNIDAD":"URBANO","ULTIMOMOVIMIENTO":"CAMBIO","FEULMOVIMIENTO":"2016-10-11"},"32801":{"CLUES":"SRSSA006302","NOMBREENTIDAD":"SONORA","NOMBREMUNICIPIO":"SAN LUIS RÍO COLORADO","NOMBRE-LOCALIDAD":"SAN LUIS RIO COLORADO","CLAVEINSTITUCION":"SSA","NOMBREUNIDAD":"ALMACÉN JURISDICCIÓN SANITARIA VI","DIRECCION":null,"CODIGOPOSTAL":"83449","RFC":null,"FECHACONSTRUCCION":null,"FECHAINICIOPERACION":"2017-05-16","LONGITUD":"-114.785956","LATITUD":"32.471752","ESTRATOUNIDAD":"URBANO","ULTIMOMOVIMIENTO":"ALTA","FEULMOVIMIENTO":"2019-08-20"},"32817":{"CLUES":"SRSSA017503","NOMBREENTIDAD":"SONORA","NOMBREMUNICIPIO":"HERMOSILLO","NOMBRE-LOCALIDAD":"HERMOSILLO","CLAVEINSTITUCION":"SSA","NOMBREUNIDAD":"ALMACÉN ESTATAL DE SALUD","DIRECCION":null,"CODIGOPOSTAL":"83280","RFC":"XAXX111111","FECHACONSTRUCCION":null,"FECHAINICIOPERACION":"1999-12-09","LONGITUD":"-111.0258852","LATITUD":"29.1018827","ESTRATOUNIDAD":"URBANO","ULTIMOMOVIMIENTO":"CAMBIO","FEULMOVIMIENTO":"2018-03-27"},"32819":{"CLUES":"SRSSA017520","NOMBREENTIDAD":"SONORA","NOMBREMUNICIPIO":"HERMOSILLO","NOMBRE-LOCALIDAD":"HERMOSILLO","CLAVEINSTITUCION":"SSA","NOMBREUNIDAD":"ALMACÉN DE ACTIVO FIJO","DIRECCION":null,"CODIGOPOSTAL":"83280","RFC":"XAXX111111","FECHACONSTRUCCION":null,"FECHAINICIOPERACION":"1999-12-09","LONGITUD":"-110.9627079","LATITUD":"29.0526852","ESTRATOUNIDAD":"URBANO","ULTIMOMOVIMIENTO":"CAMBIO","FEULMOVIMIENTO":"2018-03-27"},"32821":{"CLUES":"SRSSA017544","NOMBREENTIDAD":"SONORA","NOMBREMUNICIPIO":"HERMOSILLO","NOMBRE-LOCALIDAD":"HERMOSILLO","CLAVEINSTITUCION":"SSA","NOMBREUNIDAD":"ALMACÉN JURISDICCIÓN SANITARIA  I","DIRECCION":null,"CODIGOPOSTAL":"83180","RFC":"XAXX111111","FECHACONSTRUCCION":null,"FECHAINICIOPERACION":"1999-12-09","LONGITUD":"-110.979842","LATITUD":"29.094871","ESTRATOUNIDAD":"URBANO","ULTIMOMOVIMIENTO":"CAMBIO","FEULMOVIMIENTO":"2018-07-06"},"32823":{"CLUES":"SRSSA017561","NOMBREENTIDAD":"SONORA","NOMBREMUNICIPIO":"CABORCA","NOMBRE-LOCALIDAD":"HEROICA CABORCA","CLAVEINSTITUCION":"SSA","NOMBREUNIDAD":"ALMACÉN JURISDICCIÓN SANITARIA  II","DIRECCION":null,"CODIGOPOSTAL":"83600","RFC":"XAXX111111","FECHACONSTRUCCION":null,"FECHAINICIOPERACION":"2017-10-01","LONGITUD":"-112.165669","LATITUD":"30.711557","ESTRATOUNIDAD":"URBANO","ULTIMOMOVIMIENTO":"CAMBIO","FEULMOVIMIENTO":"2018-07-06"},"32825":{"CLUES":"SRSSA017585","NOMBREENTIDAD":"SONORA","NOMBREMUNICIPIO":"SANTA ANA","NOMBRE-LOCALIDAD":"SANTA ANA","CLAVEINSTITUCION":"SSA","NOMBREUNIDAD":"ALMACÉN JURISDICCIÓN SANITARIA  III","DIRECCION":"ENSEGUIDA DE JURISDICCIÓN SANITARIA NO. 3","CODIGOPOSTAL":"84600","RFC":"XAXX111111","FECHACONSTRUCCION":null,"FECHAINICIOPERACION":"1988-05-01","LONGITUD":"-111.11891","LATITUD":"30.545074","ESTRATOUNIDAD":"URBANO","ULTIMOMOVIMIENTO":"CAMBIO","FEULMOVIMIENTO":"2018-04-24"},"32829":{"CLUES":"SRSSA017626","NOMBREENTIDAD":"SONORA","NOMBREMUNICIPIO":"CAJEME","NOMBRE-LOCALIDAD":"CIUDAD OBREGON","CLAVEINSTITUCION":"SSA","NOMBREUNIDAD":"ALMACÉN JURISDICCIÓN SANITARIA  IV","DIRECCION":null,"CODIGOPOSTAL":"85180","RFC":"XAXX111111","FECHACONSTRUCCION":null,"FECHAINICIOPERACION":"1986-10-16","LONGITUD":"-109.951294","LATITUD":"27.464886","ESTRATOUNIDAD":"URBANO","ULTIMOMOVIMIENTO":"CAMBIO","FEULMOVIMIENTO":"2018-03-27"},"32831":{"CLUES":"SRSSA017643","NOMBREENTIDAD":"SONORA","NOMBREMUNICIPIO":"NAVOJOA","NOMBRE-LOCALIDAD":"NAVOJOA","CLAVEINSTITUCION":"SSA","NOMBREUNIDAD":"ALMACÉN JURISDICCIÓN SANITARIA  V","DIRECCION":null,"CODIGOPOSTAL":"85840","RFC":"XAXX111111","FECHACONSTRUCCION":null,"FECHAINICIOPERACION":"2011-07-01","LONGITUD":"-109.440779","LATITUD":"27.081965","ESTRATOUNIDAD":"URBANO","ULTIMOMOVIMIENTO":"CAMBIO","FEULMOVIMIENTO":"2018-05-03"},"32832":{"CLUES":"SRSSA017655","NOMBREENTIDAD":"SONORA","NOMBREMUNICIPIO":"NAVOJOA","NOMBRE-LOCALIDAD":"NAVOJOA","CLAVEINSTITUCION":"SSA","NOMBREUNIDAD":"ALMACÉN DE INSUMOS P\/COMBATE DE VECTORES JS V","DIRECCION":null,"CODIGOPOSTAL":"85894","RFC":"XAXX111111","FECHACONSTRUCCION":null,"FECHAINICIOPERACION":"1992-01-01","LONGITUD":"-109.436685","LATITUD":"27.048359","ESTRATOUNIDAD":"URBANO","ULTIMOMOVIMIENTO":"CAMBIO","FEULMOVIMIENTO":"2018-05-03"},"33941":{"CLUES":"TCSSA006372","NOMBREENTIDAD":"TABASCO","NOMBREMUNICIPIO":"HUIMANGUILLO","NOMBRE-LOCALIDAD":"HUIMANGUILLO","CLAVEINSTITUCION":"SSA","NOMBREUNIDAD":"ALMACÉN GENERAL JURISDICCIÓN SANITARIA HUIMANGUILLO, TABASCO.","DIRECCION":null,"CODIGOPOSTAL":"86400","RFC":"OPD970714U91","FECHACONSTRUCCION":null,"FECHAINICIOPERACION":"2019-03-28","LONGITUD":"-93.392634","LATITUD":"17.831698","ESTRATOUNIDAD":"URBANO","ULTIMOMOVIMIENTO":"ALTA","FEULMOVIMIENTO":"2019-08-20"},"33943":{"CLUES":"TCSSA006396","NOMBREENTIDAD":"TABASCO","NOMBREMUNICIPIO":"MACUSPANA","NOMBRE-LOCALIDAD":"MACUSPANA","CLAVEINSTITUCION":"SSA","NOMBREUNIDAD":"ALMACÉN JURISDICCIONAL MACUSPANA","DIRECCION":"AL LADO DE LA PRIMARIA CLUB DE LEONES","CODIGOPOSTAL":"86700","RFC":"OPD970314U91","FECHACONSTRUCCION":null,"FECHAINICIOPERACION":"2008-01-01","LONGITUD":"-92.597507","LATITUD":"17.766369","ESTRATOUNIDAD":"URBANO","ULTIMOMOVIMIENTO":"ALTA","FEULMOVIMIENTO":"2019-09-11"},"33965":{"CLUES":"TCSSA016383","NOMBREENTIDAD":"TABASCO","NOMBREMUNICIPIO":"BALANCÁN","NOMBRE-LOCALIDAD":"BALANCAN","CLAVEINSTITUCION":"SSA","NOMBREUNIDAD":"ALMACÉN JURISDICCIONAL DE BALANCÁN","DIRECCION":"V. CARRANZA 301","CODIGOPOSTAL":"86930","RFC":"XAXX111111","FECHACONSTRUCCION":null,"FECHAINICIOPERACION":"1986-01-01","LONGITUD":"-91.5347","LATITUD":"17.8084","ESTRATOUNIDAD":"URBANO","ULTIMOMOVIMIENTO":"ALTA","FEULMOVIMIENTO":"2006-08-30"},"33967":{"CLUES":"TCSSA016400","NOMBREENTIDAD":"TABASCO","NOMBREMUNICIPIO":"CÁRDENAS","NOMBRE-LOCALIDAD":"CARDENAS","CLAVEINSTITUCION":"SSA","NOMBREUNIDAD":"ALMACÉN JURISDICCIONAL DE CÁRDENAS","DIRECCION":"AVENIDA LÁZARO CÁRDENAS  NO. 1000","CODIGOPOSTAL":"86500","RFC":"XAXX111111","FECHACONSTRUCCION":null,"FECHAINICIOPERACION":"1986-01-01","LONGITUD":"-93.3731","LATITUD":"17.9926","ESTRATOUNIDAD":"URBANO","ULTIMOMOVIMIENTO":"ALTA","FEULMOVIMIENTO":"2006-08-30"},"33969":{"CLUES":"TCSSA016424","NOMBREENTIDAD":"TABASCO","NOMBREMUNICIPIO":"CENTLA","NOMBRE-LOCALIDAD":"FRONTERA","CLAVEINSTITUCION":"SSA","NOMBREUNIDAD":"ALMACÉN JURISDICCIONAL DE CENTLA","DIRECCION":"ÁLVARO OBREGON ESQ. CONSTITUCIÓN","CODIGOPOSTAL":"99999","RFC":"XAXX111111","FECHACONSTRUCCION":null,"FECHAINICIOPERACION":"1986-01-01","LONGITUD":"-92.646","LATITUD":"18.5327","ESTRATOUNIDAD":"URBANO","ULTIMOMOVIMIENTO":"ALTA","FEULMOVIMIENTO":"2006-08-30"},"33972":{"CLUES":"TCSSA016453","NOMBREENTIDAD":"TABASCO","NOMBREMUNICIPIO":"CENTRO","NOMBRE-LOCALIDAD":"VILLAHERMOSA","CLAVEINSTITUCION":"SSA","NOMBREUNIDAD":"ALMACÉN ESTATAL DE TABASCO","DIRECCION":"AV. ACERO S\/N CD. INDUSTRIAL","CODIGOPOSTAL":"86010","RFC":"XAXX111111","FECHACONSTRUCCION":null,"FECHAINICIOPERACION":"1986-01-01","LONGITUD":"-92.952","LATITUD":"17.9951","ESTRATOUNIDAD":"URBANO","ULTIMOMOVIMIENTO":"ALTA","FEULMOVIMIENTO":"2006-08-30"},"33973":{"CLUES":"TCSSA016465","NOMBREENTIDAD":"TABASCO","NOMBREMUNICIPIO":"CENTRO","NOMBRE-LOCALIDAD":"VILLAHERMOSA","CLAVEINSTITUCION":"SSA","NOMBREUNIDAD":"ALMACÉN JURISDICCIONAL DEL CENTRO","DIRECCION":"CALLE CUNDUACAN S\/N  PRADOS DE VHSA","CODIGOPOSTAL":"86000","RFC":"XAXX111111","FECHACONSTRUCCION":null,"FECHAINICIOPERACION":"1986-01-01","LONGITUD":"-92.952","LATITUD":"17.9951","ESTRATOUNIDAD":"URBANO","ULTIMOMOVIMIENTO":"ALTA","FEULMOVIMIENTO":"2006-08-30"},"33976":{"CLUES":"TCSSA016494","NOMBREENTIDAD":"TABASCO","NOMBREMUNICIPIO":"COMALCALCO","NOMBRE-LOCALIDAD":"COMALCALCO","CLAVEINSTITUCION":"SSA","NOMBREUNIDAD":"ALMACÉN JURISDICCIONAL DE COMALCALCO","DIRECCION":"BLVRD LEANDRO R. WADE","CODIGOPOSTAL":"86357","RFC":"XAXX111111","FECHACONSTRUCCION":null,"FECHAINICIOPERACION":"1986-01-01","LONGITUD":"-93.2225","LATITUD":"18.2665","ESTRATOUNIDAD":"URBANO","ULTIMOMOVIMIENTO":"ALTA","FEULMOVIMIENTO":"2006-08-30"},"33980":{"CLUES":"TCSSA016535","NOMBREENTIDAD":"TABASCO","NOMBREMUNICIPIO":"EMILIANO ZAPATA","NOMBRE-LOCALIDAD":"EMILIANO ZAPATA","CLAVEINSTITUCION":"SSA","NOMBREUNIDAD":"ALMACÉN JURISDICCIONAL DE EMILIANO ZAPATA","DIRECCION":"ABASOLO ESQ. AGRARISTA S\/N","CODIGOPOSTAL":"86996","RFC":"XAXX111111","FECHACONSTRUCCION":null,"FECHAINICIOPERACION":"1986-01-01","LONGITUD":"-91.769","LATITUD":"17.7387","ESTRATOUNIDAD":"URBANO","ULTIMOMOVIMIENTO":"ALTA","FEULMOVIMIENTO":"2006-08-30"},"33984":{"CLUES":"TCSSA016576","NOMBREENTIDAD":"TABASCO","NOMBREMUNICIPIO":"JALAPA","NOMBRE-LOCALIDAD":"JALAPA","CLAVEINSTITUCION":"SSA","NOMBREUNIDAD":"ALMACÉN JURISDICCIONAL DE JALAPA","DIRECCION":"FRANCISCO J. SANTAMARIA N.5","CODIGOPOSTAL":"86850","RFC":"XAXX111111","FECHACONSTRUCCION":null,"FECHAINICIOPERACION":"1986-01-01","LONGITUD":"-92.8129","LATITUD":"17.7212","ESTRATOUNIDAD":"URBANO","ULTIMOMOVIMIENTO":"ALTA","FEULMOVIMIENTO":"2006-08-30"},"33986":{"CLUES":"TCSSA016593","NOMBREENTIDAD":"TABASCO","NOMBREMUNICIPIO":"JALPA DE MÉNDEZ","NOMBRE-LOCALIDAD":"JALPA DE MENDEZ","CLAVEINSTITUCION":"SSA","NOMBREUNIDAD":"ALMACÉN JURISDICCIONAL DE JALPA DE MÉNDEZ","DIRECCION":"ATRÁS DEL CENTRO NUEVA VIDA","CODIGOPOSTAL":"86200","RFC":"XAXX111111","FECHACONSTRUCCION":null,"FECHAINICIOPERACION":"2015-06-16","LONGITUD":"-93.063549","LATITUD":"18.174972","ESTRATOUNIDAD":"URBANO","ULTIMOMOVIMIENTO":"CAMBIO","FEULMOVIMIENTO":"2019-12-09"},"33988":{"CLUES":"TCSSA016610","NOMBREENTIDAD":"TABASCO","NOMBREMUNICIPIO":"JONUTA","NOMBRE-LOCALIDAD":"JONUTA","CLAVEINSTITUCION":"SSA","NOMBREUNIDAD":"ALMACÉN JURISDICCIONAL DE JONUTA","DIRECCION":"AQUILES SERDADN NO. 5","CODIGOPOSTAL":"86781","RFC":"XAXX111111","FECHACONSTRUCCION":null,"FECHAINICIOPERACION":"1986-01-01","LONGITUD":"-92.1376","LATITUD":"18.0906","ESTRATOUNIDAD":"URBANO","ULTIMOMOVIMIENTO":"ALTA","FEULMOVIMIENTO":"2006-08-30"},"33992":{"CLUES":"TCSSA016651","NOMBREENTIDAD":"TABASCO","NOMBREMUNICIPIO":"NACAJUCA","NOMBRE-LOCALIDAD":"NACAJUCA","CLAVEINSTITUCION":"SSA","NOMBREUNIDAD":"ALMACÉN JURISDICCIONAL DE NACAJUCA","DIRECCION":"EUSEBIO CASTILLO NO. 127","CODIGOPOSTAL":"86220","RFC":"XAXX111111","FECHACONSTRUCCION":null,"FECHAINICIOPERACION":"1986-01-01","LONGITUD":"-93.016","LATITUD":"18.1686","ESTRATOUNIDAD":"URBANO","ULTIMOMOVIMIENTO":"ALTA","FEULMOVIMIENTO":"2006-08-30"},"33994":{"CLUES":"TCSSA016675","NOMBREENTIDAD":"TABASCO","NOMBREMUNICIPIO":"PARAÍSO","NOMBRE-LOCALIDAD":"PARAISO","CLAVEINSTITUCION":"SSA","NOMBREUNIDAD":"ALMACÉN JURISDICCIONAL DE PARAÍSO","DIRECCION":"NO DISPONIBLE","CODIGOPOSTAL":"86600","RFC":"XAXX111111","FECHACONSTRUCCION":null,"FECHAINICIOPERACION":"1986-01-01","LONGITUD":"-93.2078","LATITUD":"18.3991","ESTRATOUNIDAD":"URBANO","ULTIMOMOVIMIENTO":"ALTA","FEULMOVIMIENTO":"2006-08-30"},"33998":{"CLUES":"TCSSA016716","NOMBREENTIDAD":"TABASCO","NOMBREMUNICIPIO":"TEAPA","NOMBRE-LOCALIDAD":"TEAPA","CLAVEINSTITUCION":"SSA","NOMBREUNIDAD":"ALMACÉN JURISDICCIONAL DE TEAPA","DIRECCION":"ARROYO AZUFRE 106 COL SIERRA TEAPA TAB","CODIGOPOSTAL":"86800","RFC":"XAXX111111","FECHACONSTRUCCION":null,"FECHAINICIOPERACION":"1986-01-01","LONGITUD":"-92.9581","LATITUD":"17.5681","ESTRATOUNIDAD":"URBANO","ULTIMOMOVIMIENTO":"ALTA","FEULMOVIMIENTO":"2006-08-30"},"34000":{"CLUES":"TCSSA016733","NOMBREENTIDAD":"TABASCO","NOMBREMUNICIPIO":"TENOSIQUE","NOMBRE-LOCALIDAD":"ADOLFO LOPEZ MATEOS","CLAVEINSTITUCION":"SSA","NOMBREUNIDAD":"ALMACÉN JURISDICCIONAL DE TENOSIQUE","DIRECCION":"CALLE 55 S\/N COL. LUIS GOMEZ Z.","CODIGOPOSTAL":"86901","RFC":"XAXX111111","FECHACONSTRUCCION":null,"FECHAINICIOPERACION":"1986-01-01","LONGITUD":"-91.4006","LATITUD":"17.392","ESTRATOUNIDAD":"RURAL","ULTIMOMOVIMIENTO":"ALTA","FEULMOVIMIENTO":"2006-08-30"},"34462":{"CLUES":"TLSSA017605","NOMBREENTIDAD":"TLAXCALA","NOMBREMUNICIPIO":"APIZACO","NOMBRE-LOCALIDAD":"CIUDAD DE APIZACO","CLAVEINSTITUCION":"SSA","NOMBREUNIDAD":"ALMACÉN GENERAL","DIRECCION":"JOSÉ ARAMBURU ESQ. V. CARRANZA","CODIGOPOSTAL":"90300","RFC":"XAXX111111","FECHACONSTRUCCION":"2000-02-01","FECHAINICIOPERACION":"2000-02-01","LONGITUD":"-98.1499","LATITUD":"19.4089","ESTRATOUNIDAD":"URBANO","ULTIMOMOVIMIENTO":"CAMBIO","FEULMOVIMIENTO":"2015-12-24"},"35604":{"CLUES":"TSSSA017716","NOMBREENTIDAD":"TAMAULIPAS","NOMBREMUNICIPIO":"TAMPICO","NOMBRE-LOCALIDAD":"TAMPICO","CLAVEINSTITUCION":"SSA","NOMBREUNIDAD":"ALMACÉN 02","DIRECCION":"BELISARIO DOMÍNGUEZ 600 PTE. ENTRE ALARCÓN Y GOCHICOA, COL. DEL PUEBLO","CODIGOPOSTAL":"89190","RFC":"XAXX111111","FECHACONSTRUCCION":null,"FECHAINICIOPERACION":"1957-07-01","LONGITUD":"-97.86","LATITUD":"22.2242","ESTRATOUNIDAD":"URBANO","ULTIMOMOVIMIENTO":"CAMBIO","FEULMOVIMIENTO":"2015-12-24"},"35605":{"CLUES":"TSSSA017721","NOMBREENTIDAD":"TAMAULIPAS","NOMBREMUNICIPIO":"MATAMOROS","NOMBRE-LOCALIDAD":"HEROICA MATAMOROS","CLAVEINSTITUCION":"SSA","NOMBREUNIDAD":"ALMACÉN 03","DIRECCION":"SEXTA Y QUERETARO S\/N, COL. EUSKADI","CODIGOPOSTAL":"87380","RFC":"XAXX111111","FECHACONSTRUCCION":null,"FECHAINICIOPERACION":"1962-01-01","LONGITUD":"-97.5036","LATITUD":"25.8595","ESTRATOUNIDAD":"URBANO","ULTIMOMOVIMIENTO":"CAMBIO","FEULMOVIMIENTO":"2015-12-24"},"35606":{"CLUES":"TSSSA017733","NOMBREENTIDAD":"TAMAULIPAS","NOMBREMUNICIPIO":"REYNOSA","NOMBRE-LOCALIDAD":"REYNOSA","CLAVEINSTITUCION":"SSA","NOMBREUNIDAD":"ALMACÉN 04","DIRECCION":"SAN LUIS POTOSI S\/N. ENTRE TOLUCA Y CHILPANCINGO, COL. RODRIGUEZ","CODIGOPOSTAL":"88630","RFC":"XAXX111111","FECHACONSTRUCCION":"1950-01-01","FECHAINICIOPERACION":"1952-02-01","LONGITUD":"-98.2871","LATITUD":"26.0717","ESTRATOUNIDAD":"URBANO","ULTIMOMOVIMIENTO":"CAMBIO","FEULMOVIMIENTO":"2015-12-24"},"35607":{"CLUES":"TSSSA017745","NOMBREENTIDAD":"TAMAULIPAS","NOMBREMUNICIPIO":"NUEVO LAREDO","NOMBRE-LOCALIDAD":"NUEVO LAREDO","CLAVEINSTITUCION":"SSA","NOMBREUNIDAD":"-ALMACÉN 05","DIRECCION":"VICTORIA NO. 4501, COL HIDALGO","CODIGOPOSTAL":"88160","RFC":"XAXX111111","FECHACONSTRUCCION":null,"FECHAINICIOPERACION":"1958-01-10","LONGITUD":"-99.5233","LATITUD":"27.4943","ESTRATOUNIDAD":"URBANO","ULTIMOMOVIMIENTO":"CAMBIO","FEULMOVIMIENTO":"2014-01-08"},"35608":{"CLUES":"TSSSA017750","NOMBREENTIDAD":"TAMAULIPAS","NOMBREMUNICIPIO":"EL MANTE","NOMBRE-LOCALIDAD":"CIUDAD MANTE","CLAVEINSTITUCION":"SSA","NOMBREUNIDAD":"ALMACÉN 06","DIRECCION":"RIÓ MANTE NO. 300 OTE.COL. LAS BRISAS","CODIGOPOSTAL":"89800","RFC":"XAXX111111","FECHACONSTRUCCION":null,"FECHAINICIOPERACION":null,"LONGITUD":"-98.9708","LATITUD":"22.7328","ESTRATOUNIDAD":"URBANO","ULTIMOMOVIMIENTO":"CAMBIO","FEULMOVIMIENTO":"2015-12-24"},"35609":{"CLUES":"TSSSA017762","NOMBREENTIDAD":"TAMAULIPAS","NOMBREMUNICIPIO":"SAN FERNANDO","NOMBRE-LOCALIDAD":"SAN FERNANDO","CLAVEINSTITUCION":"SSA","NOMBREUNIDAD":"ALMACÉN 07","DIRECCION":"PROFIRIO DIAZ Y CRISTOBAL COLÓN S\/N.  A UN COSTADO DEL ESTADIO , COL. LOMA ALTA","CODIGOPOSTAL":"87600","RFC":"XAXX111111","FECHACONSTRUCCION":null,"FECHAINICIOPERACION":"1997-03-01","LONGITUD":"-98.1574","LATITUD":"24.8567","ESTRATOUNIDAD":"URBANO","ULTIMOMOVIMIENTO":"CAMBIO","FEULMOVIMIENTO":"2011-05-10"},"35610":{"CLUES":"TSSSA017774","NOMBREENTIDAD":"TAMAULIPAS","NOMBREMUNICIPIO":"JAUMAVE","NOMBRE-LOCALIDAD":"JAUMAVE","CLAVEINSTITUCION":"SSA","NOMBREUNIDAD":"ALMACÉN 08","DIRECCION":"ÁLVARO OBREGON NO. 540","CODIGOPOSTAL":"87930","RFC":"XAXX111111","FECHACONSTRUCCION":null,"FECHAINICIOPERACION":null,"LONGITUD":"-99.381","LATITUD":"23.4078","ESTRATOUNIDAD":"URBANO","ULTIMOMOVIMIENTO":"CAMBIO","FEULMOVIMIENTO":"2015-12-24"},"35611":{"CLUES":"TSSSA017786","NOMBREENTIDAD":"TAMAULIPAS","NOMBREMUNICIPIO":"VICTORIA","NOMBRE-LOCALIDAD":"CIUDAD VICTORIA","CLAVEINSTITUCION":"SSA","NOMBREUNIDAD":"ALMACÉN CENTRAL ESTATAL  DE INSUMOS","DIRECCION":"AV. JOSÉ ZULEIMAN CHAGNON NOº 3014, COL. MAGDALENO AGULAR","CODIGOPOSTAL":"87120","RFC":"XAXX111111","FECHACONSTRUCCION":null,"FECHAINICIOPERACION":null,"LONGITUD":"-99.1309","LATITUD":"23.742","ESTRATOUNIDAD":"URBANO","ULTIMOMOVIMIENTO":"CAMBIO","FEULMOVIMIENTO":"2015-12-24"},"35612":{"CLUES":"TSSSA017791","NOMBREENTIDAD":"TAMAULIPAS","NOMBREMUNICIPIO":"VICTORIA","NOMBRE-LOCALIDAD":"CIUDAD VICTORIA","CLAVEINSTITUCION":"SSA","NOMBREUNIDAD":"ALMACÉN DE ARCHIVO INACTIVO","DIRECCION":"11 HIDALGO Y MORELOS NO. 125, ZONA CENTRO","CODIGOPOSTAL":"87000","RFC":"XAXX111111","FECHACONSTRUCCION":null,"FECHAINICIOPERACION":null,"LONGITUD":"-99.1469","LATITUD":"23.7319","ESTRATOUNIDAD":"URBANO","ULTIMOMOVIMIENTO":"CAMBIO","FEULMOVIMIENTO":"2015-12-24"},"35613":{"CLUES":"TSSSA017803","NOMBREENTIDAD":"TAMAULIPAS","NOMBREMUNICIPIO":"VICTORIA","NOMBRE-LOCALIDAD":"CIUDAD VICTORIA","CLAVEINSTITUCION":"SSA","NOMBREUNIDAD":"COORDINACIÓN DE ALMACENES Y ABASTECIMIENTO","DIRECCION":"CALLE ZEFERINO FAJARDO NO. 405 , COL. LA LIBERTAD","CODIGOPOSTAL":"87018","RFC":"XAXX111111","FECHACONSTRUCCION":null,"FECHAINICIOPERACION":null,"LONGITUD":"-99.1711","LATITUD":"23.7683","ESTRATOUNIDAD":"URBANO","ULTIMOMOVIMIENTO":"CAMBIO","FEULMOVIMIENTO":"2015-12-24"},"38023":{"CLUES":"VZSSA008104","NOMBREENTIDAD":"VERACRUZ DE IGNACIO DE LA LLAVE","NOMBREMUNICIPIO":"MARTÍNEZ DE LA TORRE","NOMBRE-LOCALIDAD":"MARTINEZ DE LA TORRE","CLAVEINSTITUCION":"SSA","NOMBREUNIDAD":"ALMACEN JURISDICCIONAL","DIRECCION":null,"CODIGOPOSTAL":"93607","RFC":null,"FECHACONSTRUCCION":null,"FECHAINICIOPERACION":"2019-01-01","LONGITUD":"-97.067524","LATITUD":"20.059937","ESTRATOUNIDAD":"URBANO","ULTIMOMOVIMIENTO":"ALTA","FEULMOVIMIENTO":"2019-10-09"},"38061":{"CLUES":"VZSSA014916","NOMBREENTIDAD":"VERACRUZ DE IGNACIO DE LA LLAVE","NOMBREMUNICIPIO":"PÁNUCO","NOMBRE-LOCALIDAD":"PANUCO","CLAVEINSTITUCION":"SSA","NOMBREUNIDAD":"ALMACÉN JURISDICCIONAL PANUCO","DIRECCION":"MORELOS NO 2 COL. ALTO DE VIÑAS","CODIGOPOSTAL":"93996","RFC":"XAXX111111","FECHACONSTRUCCION":"1999-12-31","FECHAINICIOPERACION":"1982-07-31","LONGITUD":"-98.1888","LATITUD":"22.0445","ESTRATOUNIDAD":"URBANO","ULTIMOMOVIMIENTO":"CAMBIO","FEULMOVIMIENTO":"2015-12-24"},"38063":{"CLUES":"VZSSA014933","NOMBREENTIDAD":"VERACRUZ DE IGNACIO DE LA LLAVE","NOMBREMUNICIPIO":"TUXPAN","NOMBRE-LOCALIDAD":"TUXPAM DE RODRIGUEZ CANO","CLAVEINSTITUCION":"SSA","NOMBREUNIDAD":"ALMACÉN JURISDICCIONAL TUXPAN","DIRECCION":"ÁLVARO OBREGON 13 ZONA CENTRO","CODIGOPOSTAL":"92800","RFC":"XAXX111111","FECHACONSTRUCCION":null,"FECHAINICIOPERACION":"1975-02-01","LONGITUD":"-97.3806","LATITUD":"20.9586","ESTRATOUNIDAD":"URBANO","ULTIMOMOVIMIENTO":"CAMBIO","FEULMOVIMIENTO":"2015-12-24"},"38065":{"CLUES":"VZSSA014950","NOMBREENTIDAD":"VERACRUZ DE IGNACIO DE LA LLAVE","NOMBREMUNICIPIO":"POZA RICA DE HIDALGO","NOMBRE-LOCALIDAD":"POZA RICA DE HIDALGO","CLAVEINSTITUCION":"SSA","NOMBREUNIDAD":"ALMACÉN JURISDICCIONAL POZA RICA","DIRECCION":"BOULEVAR LÁZARO CÁRDENAS POZO 174 COL. MORELOS","CODIGOPOSTAL":"93340","RFC":"XAXX111111","FECHACONSTRUCCION":"1999-12-26","FECHAINICIOPERACION":"1998-03-26","LONGITUD":"-97.4543","LATITUD":"20.5286","ESTRATOUNIDAD":"URBANO","ULTIMOMOVIMIENTO":"CAMBIO","FEULMOVIMIENTO":"2013-11-14"},"38067":{"CLUES":"VZSSA014974","NOMBREENTIDAD":"VERACRUZ DE IGNACIO DE LA LLAVE","NOMBREMUNICIPIO":"MARTÍNEZ DE LA TORRE","NOMBRE-LOCALIDAD":"MARTINEZ DE LA TORRE","CLAVEINSTITUCION":"SSA","NOMBREUNIDAD":"ALMACÉN JURISDICCIONAL MTZ DE LA TORRE","DIRECCION":"ZARAGOZA NO. 200 COL. CENTRO","CODIGOPOSTAL":"93600","RFC":"XAXX111111","FECHACONSTRUCCION":"1999-12-11","FECHAINICIOPERACION":"1989-11-11","LONGITUD":"-97.054","LATITUD":"20.0699","ESTRATOUNIDAD":"URBANO","ULTIMOMOVIMIENTO":"CAMBIO","FEULMOVIMIENTO":"2013-11-15"},"38069":{"CLUES":"VZSSA015003","NOMBREENTIDAD":"VERACRUZ DE IGNACIO DE LA LLAVE","NOMBREMUNICIPIO":"XALAPA","NOMBRE-LOCALIDAD":"XALAPA-ENRIQUEZ","CLAVEINSTITUCION":"SSA","NOMBREUNIDAD":"ALMACÉN JURISDICCIONAL XALAPA","DIRECCION":"VENUSTIANO CARRANZA 32 COL. FCO I MADERO","CODIGOPOSTAL":"91070","RFC":"XAXX111111","FECHACONSTRUCCION":"1999-12-10","FECHAINICIOPERACION":"1998-11-10","LONGITUD":"-96.9084","LATITUD":"19.5385","ESTRATOUNIDAD":"URBANO","ULTIMOMOVIMIENTO":"CAMBIO","FEULMOVIMIENTO":"2013-11-15"},"38070":{"CLUES":"VZSSA015015","NOMBREENTIDAD":"VERACRUZ DE IGNACIO DE LA LLAVE","NOMBREMUNICIPIO":"XALAPA","NOMBRE-LOCALIDAD":"XALAPA-ENRIQUEZ","CLAVEINSTITUCION":"SSA","NOMBREUNIDAD":"ALMACÉN ESTATAL SANTIAGO BONILLA","DIRECCION":"SANTIAGO BONILLA COL. OBRERO CAMPESINA","CODIGOPOSTAL":"91020","RFC":"XAXX111111","FECHACONSTRUCCION":"1999-12-10","FECHAINICIOPERACION":"1997-01-10","LONGITUD":"-96.9084","LATITUD":"19.5385","ESTRATOUNIDAD":"URBANO","ULTIMOMOVIMIENTO":"CAMBIO","FEULMOVIMIENTO":"2013-11-15"},"38072":{"CLUES":"VZSSA015032","NOMBREENTIDAD":"VERACRUZ DE IGNACIO DE LA LLAVE","NOMBREMUNICIPIO":"XALAPA","NOMBRE-LOCALIDAD":"XALAPA-ENRIQUEZ","CLAVEINSTITUCION":"SSA","NOMBREUNIDAD":"ALMACÉN ESTATAL AMAZONAS","DIRECCION":"AMAZONAS 6 COL. REVOLUCIÓN","CODIGOPOSTAL":"91100","RFC":"XAXX111111","FECHACONSTRUCCION":"1999-12-10","FECHAINICIOPERACION":"1996-01-10","LONGITUD":"-96.9084","LATITUD":"19.5385","ESTRATOUNIDAD":"URBANO","ULTIMOMOVIMIENTO":"CAMBIO","FEULMOVIMIENTO":"2013-11-15"},"38073":{"CLUES":"VZSSA015044","NOMBREENTIDAD":"VERACRUZ DE IGNACIO DE LA LLAVE","NOMBREMUNICIPIO":"XALAPA","NOMBRE-LOCALIDAD":"XALAPA-ENRIQUEZ","CLAVEINSTITUCION":"SSA","NOMBREUNIDAD":"ALMACÉN CENTRAL","DIRECCION":"SOCONUSCO 31 COL. AGUACATAL","CODIGOPOSTAL":"91130","RFC":"XAXX111111","FECHACONSTRUCCION":"1999-12-10","FECHAINICIOPERACION":"1997-03-10","LONGITUD":"-96.9084","LATITUD":"19.5385","ESTRATOUNIDAD":"URBANO","ULTIMOMOVIMIENTO":"CAMBIO","FEULMOVIMIENTO":"2013-11-15"},"38074":{"CLUES":"VZSSA015056","NOMBREENTIDAD":"VERACRUZ DE IGNACIO DE LA LLAVE","NOMBREMUNICIPIO":"XALAPA","NOMBRE-LOCALIDAD":"XALAPA-ENRIQUEZ","CLAVEINSTITUCION":"SSA","NOMBREUNIDAD":"ALMACÉN ESTATAL","DIRECCION":"AV. XALAPA 350","CODIGOPOSTAL":"91020","RFC":"XAXX111111","FECHACONSTRUCCION":"1999-12-10","FECHAINICIOPERACION":"1978-01-10","LONGITUD":"-96.9084","LATITUD":"19.5385","ESTRATOUNIDAD":"URBANO","ULTIMOMOVIMIENTO":"CAMBIO","FEULMOVIMIENTO":"2013-11-15"},"38076":{"CLUES":"VZSSA015073","NOMBREENTIDAD":"VERACRUZ DE IGNACIO DE LA LLAVE","NOMBREMUNICIPIO":"CÓRDOBA","NOMBRE-LOCALIDAD":"CORDOBA","CLAVEINSTITUCION":"SSA","NOMBREUNIDAD":"ALMACÉN JURISDICCIONAL","DIRECCION":"CARRETERA CORDOBA KM 341 SCA COL. INDUSTRIAL","CODIGOPOSTAL":"94690","RFC":"XAXX111111","FECHACONSTRUCCION":"1999-12-30","FECHAINICIOPERACION":"1997-03-02","LONGITUD":"-96.9402","LATITUD":"18.8884","ESTRATOUNIDAD":"URBANO","ULTIMOMOVIMIENTO":"CAMBIO","FEULMOVIMIENTO":"2013-11-15"},"38078":{"CLUES":"VZSSA015090","NOMBREENTIDAD":"VERACRUZ DE IGNACIO DE LA LLAVE","NOMBREMUNICIPIO":"ORIZABA","NOMBRE-LOCALIDAD":"ORIZABA","CLAVEINSTITUCION":"SSA","NOMBREUNIDAD":"ALMACÉN JURISDICCIONAL ORIZABA","DIRECCION":"COLÓN ORIENTE 1231 ALTOS CENTRO","CODIGOPOSTAL":"94300","RFC":"XAXX111111","FECHACONSTRUCCION":"1999-12-11","FECHAINICIOPERACION":"1982-10-11","LONGITUD":"-97.0964","LATITUD":"18.8578","ESTRATOUNIDAD":"URBANO","ULTIMOMOVIMIENTO":"CAMBIO","FEULMOVIMIENTO":"2013-11-15"},"38081":{"CLUES":"VZSSA015126","NOMBREENTIDAD":"VERACRUZ DE IGNACIO DE LA LLAVE","NOMBREMUNICIPIO":"VERACRUZ","NOMBRE-LOCALIDAD":"VERACRUZ","CLAVEINSTITUCION":"SSA","NOMBREUNIDAD":"ALMACÉN JURISDICCIONAL VERACRUZ","DIRECCION":"ALACIO PÉREZ 909 ESQ.SERDAN","CODIGOPOSTAL":"91700","RFC":"XAXX111111","FECHACONSTRUCCION":"1999-12-25","FECHAINICIOPERACION":"1963-01-25","LONGITUD":"-96.1619","LATITUD":"19.1825","ESTRATOUNIDAD":"URBANO","ULTIMOMOVIMIENTO":"CAMBIO","FEULMOVIMIENTO":"2013-11-14"},"38087":{"CLUES":"VZSSA015184","NOMBREENTIDAD":"VERACRUZ DE IGNACIO DE LA LLAVE","NOMBREMUNICIPIO":"COSAMALOAPAN DE CARPIO","NOMBRE-LOCALIDAD":"COSAMALOAPAN","CLAVEINSTITUCION":"SSA","NOMBREUNIDAD":"ALMACÉN JURISDICCIONAL COSAMALOAPAN","DIRECCION":"BELISARIO DGUEZ ESQ. MADERO","CODIGOPOSTAL":"95400","RFC":"XAXX111111","FECHACONSTRUCCION":"1999-12-11","FECHAINICIOPERACION":"2000-06-11","LONGITUD":"-95.7962","LATITUD":"18.3658","ESTRATOUNIDAD":"URBANO","ULTIMOMOVIMIENTO":"CAMBIO","FEULMOVIMIENTO":"2013-11-15"},"38089":{"CLUES":"VZSSA015201","NOMBREENTIDAD":"VERACRUZ DE IGNACIO DE LA LLAVE","NOMBREMUNICIPIO":"SAN ANDRÉS TUXTLA","NOMBRE-LOCALIDAD":"SAN ANDRES TUXTLA","CLAVEINSTITUCION":"SSA","NOMBREUNIDAD":"ALMACÉN JURISDICCIONAL SAN ANDRÉS TUXTLA","DIRECCION":"AQUILES SERDAN SN","CODIGOPOSTAL":"95710","RFC":"XAXX111111","FECHACONSTRUCCION":"1999-12-25","FECHAINICIOPERACION":"2000-02-25","LONGITUD":"-94.8814","LATITUD":"17.9642","ESTRATOUNIDAD":"URBANO","ULTIMOMOVIMIENTO":"CAMBIO","FEULMOVIMIENTO":"2013-11-14"},"38091":{"CLUES":"VZSSA015242","NOMBREENTIDAD":"VERACRUZ DE IGNACIO DE LA LLAVE","NOMBREMUNICIPIO":"COATZACOALCOS","NOMBRE-LOCALIDAD":"COATZACOALCOS","CLAVEINSTITUCION":"SSA","NOMBREUNIDAD":"ALMACÉN JURISDICCIONAL A COATZACOALCOS","DIRECCION":"AV. CUAUHTÉMOC 705","CODIGOPOSTAL":"96400","RFC":"XAXX111111","FECHACONSTRUCCION":"1999-12-15","FECHAINICIOPERACION":"2000-04-15","LONGITUD":"-94.4636","LATITUD":"18.1318","ESTRATOUNIDAD":"URBANO","ULTIMOMOVIMIENTO":"CAMBIO","FEULMOVIMIENTO":"2013-11-15"},"38092":{"CLUES":"VZSSA015254","NOMBREENTIDAD":"VERACRUZ DE IGNACIO DE LA LLAVE","NOMBREMUNICIPIO":"COATZACOALCOS","NOMBRE-LOCALIDAD":"COATZACOALCOS","CLAVEINSTITUCION":"SSA","NOMBREUNIDAD":"ALMACÉN JURISDICCIONAL B COATZACOALCOS","DIRECCION":"20 DE NOV. SN","CODIGOPOSTAL":"96400","RFC":"XAXX111111","FECHACONSTRUCCION":"1999-12-15","FECHAINICIOPERACION":"2002-01-15","LONGITUD":"-94.4636","LATITUD":"18.1318","ESTRATOUNIDAD":"URBANO","ULTIMOMOVIMIENTO":"CAMBIO","FEULMOVIMIENTO":"2013-11-15"},"38865":{"CLUES":"YNSSA013534","NOMBREENTIDAD":"YUCATAN","NOMBREMUNICIPIO":"MÉRIDA","NOMBRE-LOCALIDAD":"MERIDA","CLAVEINSTITUCION":"SSA","NOMBREUNIDAD":"ALMACÉN CENTRAL","DIRECCION":"AV. PRINCIPAL INDUSTRIAS NO CONTAMINANTES, PERIFERICO, TABLAJE CATASTRAL 21073","CODIGOPOSTAL":"97203","RFC":"XAXX111111","FECHACONSTRUCCION":null,"FECHAINICIOPERACION":"2006-06-01","LONGITUD":"-89.6274","LATITUD":"20.9713","ESTRATOUNIDAD":"URBANO","ULTIMOMOVIMIENTO":"CAMBIO","FEULMOVIMIENTO":"2015-12-24"},"38870":{"CLUES":"YNSSA013580","NOMBREENTIDAD":"YUCATAN","NOMBREMUNICIPIO":"TICUL","NOMBRE-LOCALIDAD":"TICUL","CLAVEINSTITUCION":"SSA","NOMBREUNIDAD":"ALMACÉN DE LA JURISDICCÓN NO.3","DIRECCION":"CALLE 24 NO. 265 X 33 Y 35","CODIGOPOSTAL":"97860","RFC":"XAXX111111","FECHACONSTRUCCION":null,"FECHAINICIOPERACION":"2002-06-01","LONGITUD":"-89.5377","LATITUD":"20.3994","ESTRATOUNIDAD":"URBANO","ULTIMOMOVIMIENTO":"ALTA","FEULMOVIMIENTO":"2006-09-29"},"39592":{"CLUES":"ZSSSA012504","NOMBREENTIDAD":"ZACATECAS","NOMBREMUNICIPIO":"GUADALUPE","NOMBRE-LOCALIDAD":"GUADALUPE","CLAVEINSTITUCION":"SSA","NOMBREUNIDAD":"ALMACÉN ESTATAL","DIRECCION":"TRANSITO PESADO","CODIGOPOSTAL":"98600","RFC":"XAXX111111","FECHACONSTRUCCION":null,"FECHAINICIOPERACION":"2005-01-01","LONGITUD":"-102.504","LATITUD":"22.7398","ESTRATOUNIDAD":"URBANO","ULTIMOMOVIMIENTO":"CAMBIO","FEULMOVIMIENTO":"2011-05-10"},"39596":{"CLUES":"ZSSSA012545","NOMBREENTIDAD":"ZACATECAS","NOMBREMUNICIPIO":"ZACATECAS","NOMBRE-LOCALIDAD":"ZACATECAS","CLAVEINSTITUCION":"SSA","NOMBREUNIDAD":"ALMACÉN JURISDICCIÓN 1","DIRECCION":"AV. HÉROES DE CHAPULTEPEC NO. 110","CODIGOPOSTAL":"98050","RFC":"XAXX111111","FECHACONSTRUCCION":null,"FECHAINICIOPERACION":"1993-01-01","LONGITUD":"-102.587","LATITUD":"22.7743","ESTRATOUNIDAD":"URBANO","ULTIMOMOVIMIENTO":"CAMBIO","FEULMOVIMIENTO":"2011-05-10"},"39598":{"CLUES":"ZSSSA012562","NOMBREENTIDAD":"ZACATECAS","NOMBREMUNICIPIO":"OJOCALIENTE","NOMBRE-LOCALIDAD":"OJOCALIENTE","CLAVEINSTITUCION":"SSA","NOMBREUNIDAD":"ALMACÉN JURISDICCIÓN 2","DIRECCION":"HIDALGO NO. 41","CODIGOPOSTAL":"98710","RFC":"XAXX111111","FECHACONSTRUCCION":null,"FECHAINICIOPERACION":"1993-01-01","LONGITUD":"-102.251","LATITUD":"22.5719","ESTRATOUNIDAD":"URBANO","ULTIMOMOVIMIENTO":"CAMBIO","FEULMOVIMIENTO":"2011-05-10"},"39600":{"CLUES":"ZSSSA012586","NOMBREENTIDAD":"ZACATECAS","NOMBREMUNICIPIO":"FRESNILLO","NOMBRE-LOCALIDAD":"FRESNILLO","CLAVEINSTITUCION":"SSA","NOMBREUNIDAD":"ALMACÉN JURISDICCIÓN 3","DIRECCION":"CRUZ VERDE ESQUINA DR. HIERRO S\/N","CODIGOPOSTAL":"99000","RFC":"XAXX111111","FECHACONSTRUCCION":null,"FECHAINICIOPERACION":"1989-01-01","LONGITUD":"-102.867","LATITUD":"23.1766","ESTRATOUNIDAD":"URBANO","ULTIMOMOVIMIENTO":"CAMBIO","FEULMOVIMIENTO":"2011-05-10"},"39602":{"CLUES":"ZSSSA012603","NOMBREENTIDAD":"ZACATECAS","NOMBREMUNICIPIO":"RÍO GRANDE","NOMBRE-LOCALIDAD":"RIO GRANDE","CLAVEINSTITUCION":"SSA","NOMBREUNIDAD":"ALMACÉN JURISDICCIÓN 4","DIRECCION":"PASEO INDEPENDENCIA S\/N","CODIGOPOSTAL":"98429","RFC":"XAXX111111","FECHACONSTRUCCION":null,"FECHAINICIOPERACION":"1993-01-01","LONGITUD":"-103.042","LATITUD":"23.8216","ESTRATOUNIDAD":"URBANO","ULTIMOMOVIMIENTO":"CAMBIO","FEULMOVIMIENTO":"2011-05-10"},"39604":{"CLUES":"ZSSSA012620","NOMBREENTIDAD":"ZACATECAS","NOMBREMUNICIPIO":"JALPA","NOMBRE-LOCALIDAD":"JALPA","CLAVEINSTITUCION":"SSA","NOMBREUNIDAD":"ALMACÉN JURISDICCIÓN 5","DIRECCION":"20 DE NOVIEMBRE S\/N","CODIGOPOSTAL":"98600","RFC":"XAXX111111","FECHACONSTRUCCION":null,"FECHAINICIOPERACION":"1993-01-01","LONGITUD":"-102.982","LATITUD":"21.6318","ESTRATOUNIDAD":"URBANO","ULTIMOMOVIMIENTO":"CAMBIO","FEULMOVIMIENTO":"2011-05-10"},"39606":{"CLUES":"ZSSSA012644","NOMBREENTIDAD":"ZACATECAS","NOMBREMUNICIPIO":"TLALTENANGO DE SÁNCHEZ ROMÁN","NOMBRE-LOCALIDAD":"TLALTENANGO DE SANCHEZ ROMAN","CLAVEINSTITUCION":"SSA","NOMBREUNIDAD":"ALMACÉN JURISDICCIÓN 6","DIRECCION":"ZARAGOZA NO. 21","CODIGOPOSTAL":"98700","RFC":"XAXX111111","FECHACONSTRUCCION":null,"FECHAINICIOPERACION":"1993-01-01","LONGITUD":"-103.307","LATITUD":"21.7815","ESTRATOUNIDAD":"URBANO","ULTIMOMOVIMIENTO":"CAMBIO","FEULMOVIMIENTO":"2011-05-10"},"39608":{"CLUES":"ZSSSA012661","NOMBREENTIDAD":"ZACATECAS","NOMBREMUNICIPIO":"CONCEPCIÓN DEL ORO","NOMBRE-LOCALIDAD":"CONCEPCION DEL ORO","CLAVEINSTITUCION":"SSA","NOMBREUNIDAD":"ALMACÉN JURISDICCIÓN 7","DIRECCION":"VENUSTIANO CARRANZA S\/N","CODIGOPOSTAL":"98200","RFC":"XAXX111111","FECHACONSTRUCCION":null,"FECHAINICIOPERACION":"1993-01-01","LONGITUD":"-101.423","LATITUD":"24.6154","ESTRATOUNIDAD":"URBANO","ULTIMOMOVIMIENTO":"CAMBIO","FEULMOVIMIENTO":"2011-05-10"}}
}
